,street,dir_word,township,postal_code,count_date,year,section,count_direction,one_way,avg_perweekday,latitude,longitude
0,CHE DE BESSAYRE,BESSAYRE (CHE DE BESSAYRE),St-Jean,31488,2014-02-08,2014-01-01,ENTRE VALLON ET MERMOZ,VERS CH DE MONTRABE,False,4010.0,43.653914232077135,1.5027828863494108
1,RUE DE BAYARD,BAYARD (RUE DE BAYARD)_TOULOUSE,Toulouse,31555,2014-05-14,2014-01-01,ENTRE ORIENT ET LAFON,VERS LAFON,True,7036.0,43.60954527828468,1.4490135716233121
2,RUE DE MAURYS,MAURYS (RUE DE MAURYS),Gratentour,31230,2014-04-21,2014-01-01,ENTRE TASCAS ET AV DE TOULOUSE,VERS GRATENTOUR,False,2309.0,43.72715480590076,1.4408803778230503
3,RUE DU TASCAS,TASCAS (RUE DU TASCAS),Gratentour,31230,2014-04-24,2014-01-01,ENTRE MAURYS ET PRUNIERS,VERS PECHBONIEU,False,3104.0,43.72221610746344,1.4370415009671003
4,RUE LOUIS PLANA,PLANA (RUE LOUIS PLANA),Toulouse,31555,2014-04-08,2014-01-01,ENTRE SURCOUF ET FRATERNITE,VERS SURCOUF,False,4669.0,43.61009370704622,1.4793010756879603
5,RUE CHARLES GOUNOD,GOUNOD (RUE CHARLES GOUNOD),Toulouse,31555,2014-03-20,2014-01-01,ENTRE BAUDELAIRE ET KRUGER,VERS ROLAND GARROS,False,863.0,43.6138167196074,1.424736937890595
6,CHE DE LADOUX,LADOUX (CHE DE LADOUX),Saint-Jory,31490,2014-02-22,2014-01-01,ENTRE TRINCHET ET PARC,VERS CHE PARC,False,1306.0,43.74019904229352,1.3738179866302058
7,RUE EMILE LECRIVAIN,LECRIVAIN (RUE EMILE LECRIVAIN),Toulouse,31555,2014-05-17,2014-01-01,ENTRE CARROSSE ET COLLENOT,VERS COLLENOT,False,954.0,43.57465941064875,1.4868300501508274
8,RTE DE CORNEBARRIEU,CORNEBARRIEU (RTE DE CORNEBARRIEU),Aussonne,31032,2014-09-19,2014-01-01,ENTRE GRAOS ET PANARIOL,VERS CHE DE FOURTANIER,False,5104.0,43.67020703918653,1.3229275165035823
9,AV CRAMPEL,CRAMPEL (AV CRAMPEL),Toulouse,31555,2014-09-15,2014-01-01,ENTRE CLEMENCEAU ET RACINE,VERS SEGOFFIN,False,15123.0,43.585585515964006,1.4553714085767782
10,RTE D AUCH,AUCH (RTE D AUCH),Colomiers,31149,2014-01-22,2014-01-01,ECHANGEUR 6 RN 124,VERS TOULOUSE RN124,True,13431.0,43.60524008200115,1.2893436326241627
11,CHE DE RIVALSUPERVIC,RIVALSUPERVIC (CHE DE RIVALSUPERVIC),Toulouse,31555,2014-01-20,2014-01-01,ENTRE CHE DES ETROITS CHE PLANTADE,VERS CHE DES ETROITS,False,2341.0,43.54940972287738,1.4467371433978344
12,CHE VIREBENT,VIREBENT (CHE VIREBENT),Launaguet,31282,2014-01-13,2014-01-01,ENTRE PALANQUE ET ENCOURSE,LES 2 SENS,False,8586.0,43.65756560928114,1.4553841251618818
13,CHE DES COMBES,COMBES (CHE DES COMBES)_LAUNAGUET,Launaguet,31282,2014-09-22,2014-01-01,ENTRE CAZALBARBIER ET BRASSENS,LES 2 SENS,False,1952.0,43.67471929311345,1.460835869066244
14,CHE DE LESTANG,LESTANG (CHE DE LESTANG)_TOULOUSE,Toulouse,31555,2014-10-06,2014-01-01,ENTRE EISENHOWER ET PERPIGNAN,LES 2 SENS,False,11271.0,43.552890372551964,1.393555344167955
15,RUE DES TRENTE SIX PONTS,PONTS (RUE DES TRENTE SIX PONTS),Toulouse,31555,2014-10-07,2014-01-01,ENTRE GUESDE ET SAINTE CATHERINE,SENS UNIQUE VERS SAINTE CATHERINE,True,1123.0,43.590824792368565,1.4480852455384388
16,AV DE GAROSSOS,GAROSSOS (AV DE GAROSSOS),Beauzelle,31056,2014-11-14,2014-01-01,ENTRE JUNICASSA ET RIOU,VERS JUNICASSA,False,2743.0,43.667676862888136,1.3646649116579446
17,AV DE L HERS,HERS (AV DE L HERS),Toulouse,31555,2014-12-05,2014-01-01,ENTRE PLANA ET MAURIES,VERS PLANA,False,745.0,43.613623963039764,1.4793640699223631
18,ALL CHARLES DE FITTE,FITTE (ALL CHARLES DE FITTE),Toulouse,31555,2016-09-21,2016-01-01,ENTRE RUE BOURASOL ET RUE VARSY,VERS RUE VARSY,False,17347.0,43.60084288690726,1.4286348151939647
19,CHE DES BOURDETTES,BOURDETTES (CHE DES BOURDETTES),Cugnaux,31157,2016-10-06,2016-01-01,ENTRE RUE DES TROUBADOURS ET RTE DE TOULOUS,VERS RUE DES TROUBADOURS,False,737.0,43.552280033702495,1.3529307707951455
20,RUE DES TROUBADOURS,TROUBADOURS (RUE DES TROUBADOURS),Cugnaux,31157,2016-10-06,2016-01-01,ENTRE CHE GAYLAR ET IMP DES TROUBADOURS,VERS CHE MICHET,False,756.0,43.55401123009325,1.3610366350772536
21,RUE NOUADHIBOU,NOUADHIBOU (RUE NOUADHIBOU),Toulouse,31555,2016-11-14,2016-01-01,ENTRE RTE DE LABEGE ET RTE DE REVEL,VERS RTE DE LABEGE,False,2307.0,43.565943185802745,1.5039770270240962
22,AV RAYMOND NAVES,NAVES (AV RAYMOND NAVES),Toulouse,31555,2016-11-17,2016-01-01,ENTRE RUE MASCARD ET RUE BESSIERES,VERS BD DELTOUR,False,2716.0,43.59644627991434,1.4781176145644686
23,RUE DU FERETRA,FERETRA (RUE DU FERETRA),Toulouse,31555,2016-11-22,2016-01-01,ENTRE RUE ST ROCH ET RUE DE VENISE,VERS RUE DES CASERNES,False,2911.0,43.57822600738884,1.44318657037376
24,RUE FRANCOISE GIROUD,GIROUD (RUE FRANCOISE GIROUD),Toulouse,31555,2016-11-23,2016-01-01,ENTRE RUE ROQUEMAUREL ET AV DE LOMBEZ,VERS RUE ROQUEMAUREL,False,424.0,43.59534544543665,1.4126401898839052
25,RUE RENE SENTENAC,SENTENAC (RUE RENE SENTENAC),Toulouse,31555,2016-11-25,2016-01-01,ENTRE MARIGNAC ET PAS CRABE,VERS IMP RASEYRE,False,713.0,43.61001575313521,1.3772327167689142
26,AV JULES VEDRINES,VEDRINES (AV JULES VEDRINES),Aussonne,31032,2016-11-25,2016-01-01,ENTTRE CHE ARGILOS ET RUE DORET,VERS RUE DORET,False,366.0,43.687029652994006,1.3181819283133438
27,AV DE LA COLONNE,COLONNE (AV DE LA COLONNE),Toulouse,31555,2016-11-25,2016-01-01,ENTRE ALL DES ACACIAS ET CHE CAILLIBENS,VERS CHE CAILLIBENS,False,688.0,43.609564481497586,1.4620461211859153
28,AV PIERRE MOLETTE,MOLETTE (AV PIERRE MOLETTE),Toulouse,31555,2016-12-01,2016-01-01,ENTRE CHE DU RAMELET MOUNDI ET RU ALEMBERT,VERS CHE DU RAMEELT MOUNDI,False,1085.0,43.58893972379173,1.3850016762695152
29,RUE DE L AUDE,AUDE (RUE DE L AUDE),Toulouse,31555,2017-01-10,2017-01-01,ENTRE CLABEL ET RIEUX,VERS AV JEAN RIEUX,False,505.0,43.58364939571052,1.4822137441378773
30,RUE JEAN LOUIS HARCHENKO,HARCHENKO (RUE JEAN LOUIS HARCHENKO),Toulouse,31555,2017-01-16,2017-01-01,ENTRE CHE LICARD ET  IMP GUILHERMY,VERS IMP GUILHERMY,False,219.0,43.563701560177215,1.363070123532367
31,RTE DE PARIS,PARIS (RTE DE PARIS),Aucamville,31022,2017-01-23,2017-01-01,ENTRE RTE DE LACOURTENSOURT ET  RUE SEVESO,VERS SAINT ALBAN,False,16738.0,43.66130938484077,1.4167782622678877
32,DEPARTEMENTALE 820,820 (DEPARTEMENTALE 820),Saint-Jory,31490,2017-01-23,2017-01-01,ENTRE CHE NIVITAL SAINT JORY,VERS SAINT JORY,False,11357.0,43.74389121522037,1.3688309553962765
33,RUE DU CHATEAU,CHATEAU (RUE DU CHATEAU),Brax,31088,2017-01-25,2017-01-01,ENTRE PL DU CHATEAU ET PL DU VIDALET,VERS PL DU VIDALET,False,1011.0,43.61591780555106,1.247571314107992
34,RUE D APOLLO,APOLLO (RUE D APOLLO),L'union,31561,2017-02-21,2017-01-01,ENTRE RUE DE SOYOUZ ET RUE ARIANE,VERS RUE DE SOYOUZ,False,1370.0,43.64146793262963,1.498703498071999
35,AV PIERRE GEORGES LATECOERE,LATECOERE (AV PIERRE GEORGES LATECOERE),Blagnac,31069,2017-02-27,2017-01-01,ENTRE SERVANTY ET VELASQUEZ,SENS UNIQUE VERS VELASQUEZ,True,6023.0,43.62206700488254,1.3927628759591426
36,RUE DES MIMOSAS,MIMOSAS (RUE DES MIMOSAS),Pibrac,31417,2017-03-09,2017-01-01,ENTRE SQ BLEUETS ET SQ PAQUERETTES,VERS CHE SAINT ROCH,False,849.0,43.612782958274444,1.287124060936779
37,RUE DU DOCTEUR EMILE ROUX,ROUX (RUE DU DOCTEUR EMILE ROUX),Toulouse,31555,2015-12-15,2015-01-01,ENTRE RUE CALMETTE,VERS RUE DES FONTAINES,False,139.0,43.599965050571676,1.4245816418141697
38,RUE JACQUES LABATUT,LABATUT (RUE JACQUES LABATUT)_TOULOUSE,Toulouse,31555,2016-03-14,2016-01-01,ENTRE POTIERS ET ST SAUVEUR,VERS PORT ST SAUVEUR,True,368.0,43.598080742444104,1.4549472417086706
39,RUE SAINT FERREOL,FERREOL (RUE SAINT FERREOL),Toulouse,31555,2016-03-14,2016-01-01,ENTRE BD RIQUET ET RUE RIQUET,VERS RUE RIQUET,True,237.0,43.60669646302293,1.4547829933109082
40,RUE DE CHATEAUDUN,CHATEAUDUN (RUE DE CHATEAUDUN),Toulouse,31555,2016-03-14,2016-01-01,ENTRE JANY ET PRINTEMPS,VERS RUE DU PRINTEMPS,True,322.0,43.614510045673,1.445510080757316
41,RUE DOMINIQUE INGRES,INGRES (RUE DOMINIQUE INGRES),Toulouse,31555,2016-03-14,2016-01-01,ENTRE PRINTEMPS ET CHALETS,VERS RUE DU PRINTEMPS,True,1870.0,43.61402302285981,1.442352164721883
42,CHE DES VIEILLES ECOLES,ECOLES (CHE DES VIEILLES ECOLES),Toulouse,31555,2016-03-16,2016-01-01,ENTRE CHE LALANDE ETRUE HAEDENS,VERS CHE LALANDE,False,123.0,43.64984495795795,1.4292338702871172
43,RUE SAINT JOSEPH,JOSEPH (RUE SAINT JOSEPH),Toulouse,31555,2016-03-24,2016-01-01,ENTRE DUMERIL ET SALVAYRE,SENS UNIQUE VERS DUMERIL,True,1131.0,43.59039773424597,1.4507127822719714
44,RUE DU CRUCIFIX,CRUCIFIX (RUE DU CRUCIFIX),Toulouse,31555,2016-03-25,2016-01-01,ENTRE RUE VIGUERIE ET RUE DES NOVAS,VERS RUE DES NOVAS,True,154.0,43.60062579589714,1.4344330035999178
45,BD PIERRE ET MARIE CURIE,CURIE (BD PIERRE ET MARIE CURIE),Toulouse,31555,2016-03-28,2016-01-01,ENTRE RUE CAMPISTRON ET RUE AGHONNE,VERS RUE CAZENEUVE,False,6086.0,43.625076825897885,1.441651370591541
46,AV DE RANGUEIL,RANGUEIL (AV DE RANGUEIL),Toulouse,31555,2016-04-04,2016-01-01,ENTRE CHE DES MARAICHERS ET CAMPUS,VERS AV COLONEL ROCHE,False,3164.0,43.57482872182433,1.4565325437103207
47,AV DE BIARRITZ,BIARRITZ (AV DE BIARRITZ),Toulouse,31555,2016-05-09,2016-01-01,ENTRE WAGNER ET SOURCE,VERS AV DE CASSELARDIT,False,4495.0,43.60733532958796,1.4094229987606304
48,ESP ALBERT SCHWEITZER,SCHWEITZER (ESP ALBERT SCHWEITZER),Balma,31044,2016-05-10,2016-01-01,ENTRE RUE MICHEL ET RUE FOLLEREAU,VERS ALL DU CYPRIE,False,345.0,43.61094797636911,1.5153106116691735
49,RUE DU LUAN,LUAN (RUE DU LUAN),Balma,31044,2016-05-19,2016-01-01,ENTRE AV GIMONT ET RUE BULLIARD,VERS AV GIMONT,False,597.0,43.626438740877155,1.4903294483079579
50,DEPARTEMENTALE 59,59 (DEPARTEMENTALE 59),L'union,31561,2016-06-16,2016-01-01,ENTRE AV PYRENEES ET A68,VERS AV DES PYRENEES,False,12295.0,43.651286454532055,1.4994353807137915
51,AV DE CASTRES,CASTRES (AV DE CASTRES),Toulouse,31555,2016-07-18,2016-01-01,ENTRE BD DES CRETES ET RUE CHATEAU DE L'HER,VERS BD DES CRETES,False,6450.0,43.59840763262997,1.4807614986539097
52,BD VICTOR HUGO,HUGO (BD VICTOR HUGO),Colomiers,31149,2016-09-12,2016-01-01,ENTRE RUE LAPLACE ET RUE CURIE,VERS N124,False,7304.0,43.61397937205243,1.3097684276546657
53,AV DE L EGLISE,EGLISE (AV DE L EGLISE),Saint-Jean,31488,2016-09-12,2016-01-01,ENTRE RTE D'ALBI ET RUE DES ROSES,VERS RUE DES ROSES,False,3677.0,43.66659167074504,1.5033082769882646
54,RUE JACQUES CARTIER,CARTIER (RUE JACQUES CARTIER),Toulouse,31555,2016-09-15,2016-01-01,ENTRE CHE MOUNDI ET RUE ALEMBERT,VERS CHE MOUNDI,False,335.0,43.586793502757615,1.3857103200233327
55,RUE CAPUS,CAPUS (RUE CAPUS),Toulouse,31555,2015-05-21,2015-01-01,ENTRE RUE COLBERT ET RUE CAZENEUVE,SENS UNIQUE VERS CAZENEUVE,True,606.0,43.58218740910527,1.4508483304110427
56,CHE DE CROIX BENITE,BENITE (CHE DE CROIX BENITE),Toulouse,31555,2015-04-08,2015-01-01,ENTRESERMET ET GAUSSEN,VERS AUCAMVILLE,False,5038.0,43.659793570672164,1.4347614561618074
57,RTE D AUCH,AUCH (RTE D AUCH),Colomiers,31149,2015-04-08,2015-01-01,ENTRE RUE CAYRE ET CHE DU PAGE,VERS AUCH,False,38435.0,43.60524008200115,1.2893436326241627
58,CHE DU PAGE,PAGE (CHE DU PAGE),Colomiers,31149,2015-11-26,2015-01-01,ENTRE ALL DU PORTEL ET ALL DE LA QUILLANE,VERS AV HERMES,False,3916.0,43.60434142285679,1.3489579875913502
59,BD DEODAT DE SEVERAC,SEVERAC (BD DEODAT DE SEVERAC),Colomiers,31149,2015-11-26,2015-01-01,ENTRE ALL CROS ET CHE DES RAMASSIERS,VERS CHE DES RAMASSIERS,False,2575.0,43.596878022016845,1.354826385073103
60,AV DE PARIS,PARIS (AV DE PARIS),Blagnac,31069,2015-11-02,2015-01-01,ENTRE RUE DORET ET A621,VERS  A621,True,12281.0,43.63208271298151,1.3777404886367615
61,AV ANTOINE DE ST EXUPERY,EXUPERY (AV ANTOINE DE ST EXUPERY),Toulouse,31555,2015-09-21,2015-01-01,ENTRE RUE BARRAU ET RUE BEZIAT,VERS PONT DES DEMOISELLES,False,5554.0,43.57882485997944,1.4839392423637285
62,AV POMPIDOU,POMPIDOU (AV POMPIDOU),Cugnaux,31157,2015-11-04,2015-01-01,ENTRE RUE MENDES FRANCE ET AV DU COMMINGES,VERS AV DU COMMINGES,False,3756.0,43.53236594508973,1.350377373303629
63,CHE DE LA PASSERELLE,PASSERELLE (CHE DE LA PASSERELLE),Colomiers,31149,2015-08-31,2015-01-01,ENTRE CHE DE LA PASSERELLE ET ALL COTE D'AR,VERS CHE DE LA PASSERELLE,False,174.0,43.607182466387584,1.3240921203687537
64,ALL DE LIMAYRAC,LIMAYRAC (ALL DE LIMAYRAC),Toulouse,31555,2015-06-25,2015-01-01,ENTRE CHE DE LIMAYRAC ET RUE GARGAS,VERS AV JEAN GONORD,False,3774.0,43.5904940385877,1.482798876849244
65,RUE LEON GAMBETTA,GAMBETTA (RUE LEON GAMBETTA),Toulouse,31555,2015-01-15,2015-01-01,ENTRE CAPITOLE ET MIREPOIX,SENS UNIQUE VERS MIREPOIX,True,2820.0,43.60319677227634,1.4420748665679508
66,RUE VALADE,VALADE (RUE VALADE),Toulouse,31555,2015-01-15,2015-01-01,ENTRE BASTIDE ET SAINT PIERRE,SENS UNIQUE VERS PARGAMINIERES,True,2058.0,43.604921452149114,1.437193595361297
67,QU DE LA DAURADE,DAURADE (QU DE LA DAURADE),Toulouse,31555,2015-01-15,2015-01-01,ENTRE DAURADE ET TABAC,SENS UNIQUE VERS TABAC,True,4780.0,43.601674342426534,1.4398865715249711
68,RUE MALBEC,MALBEC (RUE MALBEC),Toulouse,31555,2015-01-15,2015-01-01,ENTRE GAMBETTA ET DAURADE,SENS UNIQUE VERS DAURADE,True,518.0,43.60219421250836,1.4399734152834787
69,RUE DE LONGCHAMPS,LONGCHAMPS (RUE DE LONGCHAMPS),Tournefeuille,31557,2015-06-12,2015-01-01,ENTRE RUE DE VINCENNES ET RUE GAUGUIN,VERS RUE GAUGUIN,False,467.0,43.590550058615655,1.3217279195089453
70,AV PIERRE MOLETTE,MOLETTE (AV PIERRE MOLETTE),Toulouse,31555,2015-06-10,2015-01-01,ENTRE AV DE  LARDENNE ET RUE ALEMBERT,VERS AV DE LARDENNE,False,1367.0,43.58893972379173,1.3850016762695152
71,RUE JEAN D ALEMBERT,ALEMBERT (RUE JEAN D ALEMBERT),Toulouse,31555,2015-06-10,2015-01-01,ENTRE RUE CARTIER ET IMP ALEMBERT,VERS CHE CATALA,False,378.0,43.5883628875508,1.38590304771956
72,RUE DU CHATEAU D EAU,EAU (RUE DU CHATEAU D EAU),Blagnac,31069,2015-01-23,2015-01-01,ENTRE RTE GRENADE ET IMP CHATEAU D'EAU,VERS SERVANTY,False,598.0,43.62351850470429,1.3959346306660785
73,RUE MARIUS TERCE,TERCE (RUE MARIUS TERCE),Toulouse,31555,2015-02-23,2015-01-01,ENTRE SORTIE AIBUS ET MAX FISCHL,VERES AIRBUS,False,1959.0,43.6078505315533,1.358644230734123
74,AV DE BALARDOU,BALARDOU (AV DE BALARDOU),Pibrac,31417,2015-01-23,2015-01-01,ENTRE CATALPAS ET PEUPLIERS,VERS CATALPAS,False,1324.0,43.61407171400201,1.2815136592264857
75,RTE DE CASTRES,CASTRES (RTE DE CASTRES),Quint-Fonsegrives,31445,2018-02-08,2018-01-01,ENTRE RPT GINESTIERE ET RD64,VERS RD64,False,4506.0,43.58638321693469,1.5433652094901045
76,BD CATALA,CATALA (BD CATALA),Saint-Orens-De-Gameville,31506,2018-03-09,2018-01-01,ENTRE RUE VIGUERIE ET RUE TOURTERELLES,VERS RUE DES TOURTERELLES,False,603.0,43.571088617200864,1.5167060684492815
77,RUE CLAUDE FAURIEL,FAURIEL (RUE CLAUDE FAURIEL),Toulouse,31555,2018-03-16,2018-01-01,ENTRE AV DE LESPINET ET RUE JASMIN,VERS AV DE LESPINET,False,30.0,43.581948571021556,1.4661434000940108
78,RUE DE CHATEAUDUN,CHATEAUDUN (RUE DE CHATEAUDUN),Toulouse,31555,2018-03-19,2018-01-01,ENTRE RUE JANY ET RUE PRINTEMPS,VERS RUE DU PRINTEMPS,True,284.0,43.614510045673,1.445510080757316
79,RUE THEODORE OZENNE,OZENNE (RUE THEODORE OZENNE),Toulouse,31555,2018-03-19,2018-01-01,ENTRE RUE FELIX ET RUE PLEAU,VERS RUE DU LANGEDOC,False,1433.0,43.5962156866252,1.4472746153387195
80,RUE CHRISTOPHE COLOMB,COLOMB (RUE CHRISTOPHE COLOMB),Toulouse,31555,2018-03-19,2018-01-01,ENTRE DB MATABIAU ET RUE VOLTA,VERS RUE VOLTA,False,149.0,43.61391968358521,1.4485476946833824
81,RUE EMILE BROUARDEL,BROUARDEL (RUE EMILE BROUARDEL)_TOULOUSE,Toulouse,31555,2018-03-19,2018-01-01,ENTRE BD LASCROSSES ET RUE FRANKLIN,VERS BD DE LA MARQUETTE,False,851.0,43.60975087257431,1.4256916876370418
82,RUE DU 14 JUILLET,JUILLET (RUE DU 14 JUILLET),Tournefeuille,31557,2018-05-15,2018-01-01,ENTRE IMP 14 JUILLET ET RTE DE TARBES,VERS RTE DE TARBES,False,417.0,43.57309816766971,1.326137847706535
83,RUE PICHOUNELLE,PICHOUNELLE (RUE PICHOUNELLE),Saint-Jory,31490,2018-05-15,2018-01-01,ENTRE CHE DE LA PLAINE ET RU EVENDINELLE,VERS CHE DE LA PLAINE,False,237.0,43.75690184230306,1.366153827382294
84,CHE DE L AUTAN,AUTAN (CHE DE L AUTAN),Aigrefeuille,31003,2018-05-15,2018-01-01,ENTRE ALL FENAISONS ET ALL MOISSONS,VERS CHE DE QUINT,False,169.0,43.56835734630495,1.5829682309145643
85,RUE DE FENOUL,FENOUL (RUE DE FENOUL),Toulouse,31555,2018-06-16,2018-01-01,,,True,170.0,43.589218182502115,1.4831204894120287
86,ALL JEAN DUFOUR,DUFOUR (ALL JEAN DUFOUR),Colomiers,31149,2018-08-10,2018-01-01,ENTRE AV JAMBON ET ALL HUGO,VERS AV JAMBON,False,134.0,43.62515142395575,1.3378070984764525
87,RUE DU PROFESSEUR JAMMES,JAMMES (RUE DU PROFESSEUR JAMMES),Toulouse,31555,2018-09-18,2018-01-01,ENTRE RUE GUTENBERG ET AV DES MINIMES,VERS AV DES MINIMES,True,244.0,43.61711727798779,1.438828934824394
88,RUE JEAN MILLET,MILLET (RUE JEAN MILLET),Toulouse,31555,2018-09-18,2018-01-01,ENTRE RUE CHAUSSAS ET RU SALAMBI,VERS RUE SANG DE SERP,False,357.0,43.6196018028592,1.427295423239096
89,RUE ADONIS,ADONIS (RUE ADONIS),Toulouse,31555,2018-09-19,2018-01-01,ENTRE RUE ROBERT ET AV DES ETATS UNIS,VERS AV DES ETATS UNIS,True,756.0,43.63145982164306,1.4277317031046077
90,AV DE LARDENNE,LARDENNE (AV DE LARDENNE),Toulouse,31555,2018-10-03,2018-01-01,ENTRE RUE MOLETTE ET CHE CATALA,VERS CHE SAVIT,False,5289.0,43.5900151683827,1.3665984600411225
91,RUE NICOLAS L VAUQUELIN,VAUQUELIN (RUE NICOLAS L VAUQUELIN),Toulouse,31555,2018-11-08,2018-01-01,ENTRE AV DE TABAR ET AV DE REYNERIE,VERS AV DE REYNERIE,True,389.0,43.57975985273891,1.4055979173253061
92,RUE GOUDOULI,GOUDOULI (RUE GOUDOULI),Toulouse,31555,2018-10-15,2018-01-01,ENTRE AV CRAMPEL ET RUE DEODORA,VERS RUE DEODORA,False,516.0,43.58750580337645,1.4587924230422165
93,ALL MAURICE MAGRE,MAGRE (ALL MAURICE MAGRE),Colomiers,31149,2018-11-15,2018-01-01,,VERS GYMNASE,False,537.0,43.59691316819985,1.3486835197074925
94,RUE DES FONTAINES,FONTAINES (RUE DES FONTAINES),Toulouse,31555,2018-10-15,2018-01-01,ENTRE RUE POUVILLON ET RUE DES BRAVES,VERS AV JEAN BRUNHES,True,4066.0,43.6013100434952,1.4176600876666858
95,AV ANTOINE DE ST EXUPERY,EXUPERY (AV ANTOINE DE ST EXUPERY),Toulouse,31555,2019-02-11,2019-01-01,ENTRE RUE ENGALIERES ET RUE FONTENELLE,VERS CHE DE LA BUTTE,False,4668.0,43.57882485997944,1.4839392423637285
96,AV DE LA GLOIRE,GLOIRE (AV DE LA GLOIRE),Toulouse,31555,2019-02-19,2019-01-01,ENTRE RUE SOLFERINO ET RUE SAVIGNAC,VERS RUE ASSALIT,False,5274.0,43.60722723078045,1.4676110077283544
97,ALL DE LA BLANQUETTE,BLANQUETTE (ALL DE LA BLANQUETTE),Colomiers,31149,2017-03-17,2017-01-01,ENTRE ESP MITTERRAND ET ALL VIGNEMAL,VERS ALL DE GVARNIE,False,881.0,43.60615723219689,1.330492202971603
98,CHE DES MAROTS,MAROTS (CHE DES MAROTS),Colomiers,31149,2017-03-17,2017-01-01,ENTRE ALL DE L'ESQUILLETTE ET ALL VAUCLUSE,VERS ALL DU VAUCLUSE,False,295.0,43.602326359520454,1.328192772008311
99,BD PIERRE SEMARD,SEMARD (BD PIERRE SEMARD),Toulouse,31555,2017-04-19,2017-01-01,ENTRE PONT DU 19 MARS ET  PONT RIQUET,VERS PONT RIQUET,True,16914.0,43.61141752417552,1.4530195955553986
100,RUE FIEUX,FIEUX (RUE FIEUX),Toulouse,31555,2017-04-20,2017-01-01,2017ENTRE RUE SAINT SAENS ET RUE GAMELIN,VERS RUE SAINT SAENS,False,1442.0,43.58269769161411,1.4202472755552267
101,RUE D AUBUISSON,AUBUISSON (RUE D AUBUISSON),Toulouse,31555,2017-04-20,2017-01-01,ENTRE RUE RIQUET ET RUE SAINT AUBIN,VERS BD CARNOT,True,3417.0,43.60331333342752,1.4525675444153874
102,CHE DE GARRIC,GARRIC (CHE DE GARRIC),Toulouse,31555,2017-04-21,2017-01-01,ENTRE RUE FLOURAC ET CHE ROQUES,VERS RTE DE BLAGNAC,False,1474.0,43.620285314672365,1.408180101499056
103,RTE DE FRONTON,FRONTON (RTE DE FRONTON),Aucamville,31022,2017-04-21,2017-01-01,ENTRE RUE JAURES ET PL NOUGEIN,VERS RUE JAURES,False,7681.0,43.67870681099826,1.4228676611405289
104,RUE PRINCIPALE,PRINCIPALE (RUE PRINCIPALE),Pibrac,31417,2017-04-21,2017-01-01,ENTRE RUE DU PRESSOIR ET BD DES ECOLES,VERS AV DE TOULOUSE,False,2849.0,43.61773655749479,1.2834496306063603
105,RUE DE LA VERGE D OR,OR (RUE DE LA VERGE D OR),Toulouse,31555,2017-05-15,2017-01-01,ENTRE BD ARCOLE ET RUE ESCOUSSIERE,VERS RUE DES 3 RENARDS,True,176.0,43.610861544632165,1.4400034849823053
106,RUE DE BANDOL,BANDOL (RUE DE BANDOL),L'union,31561,2017-05-22,2017-01-01,ENTRE CHE DES CHAMPS ET RUE DU LAVANDOU,VERS CHE DES CHAMPS,False,107.0,43.65015483858018,1.4978293629142612
107,CHE DE BAROUNA,BAROUNA (CHE DE BAROUNA),Aussonne,31032,2017-05-29,2017-01-01,ENTRE CHE SOULEILH ET RTE DU CHATEAU D'EAU,VERS RTE DCHATEAU D'EAU,False,129.0,43.6966901104828,1.3149938413470141
108,RTE DE CASTRES,CASTRES (RTE DE CASTRES),Flourens,31184,2017-06-12,2017-01-01,ENTRE CHE LAIE CISAROL ET CHE DE LA TERRASS,VERS TOULOUSE,False,5937.0,43.585145334109185,1.5742134559877792
109,DEPARTEMENTALE 63,63 (DEPARTEMENTALE 63),Gagnac-Sur-Garonne,31205,2017-06-12,2017-01-01,ENTRE SEILH ET LA GARONNE,VERS GAGNAC,False,11920.0,43.70149509832896,1.3695605479173731
110,RUE DE CARCASSONNE,CARCASSONNE (RUE DE CARCASSONNE),Toulouse,31555,2017-06-21,2017-01-01,ENTRE RUE DE CASTELNAUDARY ET RUE DE FOIX,LES DEUX SENS,False,1891.0,43.59826008024682,1.4831008730381723
111,CHE DES ETROITS,ETROITS (CHE DES ETROITS),Toulouse,31555,2017-09-06,2017-01-01,ENTRE CHE DES CANALETS ET CHE DE RIVALSUPER,VERS  CHE RIVALSUPERVIC,False,7066.0,43.56336584976836,1.4393304008337038
112,CHE DE LANCEFOC,LANCEFOC (CHE DE LANCEFOC),Flourens,31184,2017-09-06,2017-01-01,ENTRE CHE PASTEL ET CHE VIGNALIS,VERS CHE DU PASTEL,False,1059.0,43.60493639566998,1.5368323350218467
113,AV DE GASCOGNE,GASCOGNE (AV DE GASCOGNE),Tournefeuille,31557,2017-09-14,2017-01-01,ENTRE ALL HIGOUNENG ET CHE PANICARDA,VERS ALL HIGOUNENG,False,1793.0,43.591458768625515,1.3393425133228936
114,RUE SAINTE CLAIRE,CLAIRE (RUE SAINTE CLAIRE),Toulouse,31555,2017-09-20,2017-01-01,ENTRE RUE NAVES ET RUE JULIA,VERS RUE RAYMOND NOVES,False,415.0,43.59345366393931,1.4849581087932169
115,PONT DE BLAGNAC,BLAGNAC (PONT DE BLAGNAC)__TOULOUSE,Toulouse,31555,2017-09-25,2017-01-01,ENTRE RTE DE BLAGNAC ET AV DE PURPAN,VERS AV DE PURPAN,False,5679.0,43.61625314997165,1.4091167004012568
116,RTE DE SEYSSES,SEYSSES (RTE DE SEYSSES)_TOULOUSE,Toulouse,31555,2017-09-25,2017-01-01,ENTRE CHE LESTANG ET CHE VOUET,VERS CHE VOUET,False,6592.0,43.54417016675966,1.383765231112255
117,AV DE TOULOUSE,TOULOUSE (AV DE TOULOUSE),Pibrac,31417,2017-09-25,2017-01-01,ENTRE RN124 ET AV FONVIEILLE,VERS RN 124,False,5360.0,43.61060285692952,1.2845919293870278
118,ALL DE LA FONTAINE,FONTAINE (ALL DE LA FONTAINE),Colomiers,31149,2017-09-28,2017-01-01,ENTRE RUE CAYRE ET CHE DU VALLESPIR,VERS RUE CAYRE,False,814.0,43.607037511977076,1.3498091981403406
119,RUE DES COSMONAUTES,COSMONAUTES (RUE DES COSMONAUTES),Toulouse,31555,2017-11-08,2017-01-01,ENTRE RUE VILLET ET ALL GRIFON,VERS RUE VILLET,False,5475.0,43.56359186316546,1.4958086409402813
120,RTE DE LABEGE,LABEGE (RTE DE LABEGE),Toulouse,31555,2017-11-08,2017-01-01,ENTRE RUE SERVANTY ET RUE NOUADHIBOU,VERS RTE DE REVEL,False,4673.0,43.55913184374531,1.5032800852802097
121,RUE EMMANUEL CHABRIER,CHABRIER (RUE EMMANUEL CHABRIER),Toulouse,31555,2017-11-16,2017-01-01,ENTRE CHE DU SANG DE SERP ET RUE BESSEMER,VERS CHE DU SANG DE SERP,False,189.0,43.6177203650587,1.4248118257189721
122,AV DE FRONTON,FRONTON (AV DE FRONTON),Toulouse,31555,2017-11-27,2017-01-01,ENTRE RUE LABICHE ET RUE TERRAY,VERS BARRIERE DE PARIS,False,3131.0,43.63671831323792,1.4333090789595917
123,RTE DE LEVIGNAC,LEVIGNAC (RTE DE LEVIGNAC),Pibrac,31417,2017-11-29,2017-01-01,ENTRE CHE CRABIE ET AV VERDIER,VERS CHE CRABIE,False,2948.0,43.62964385609222,1.2386495194832448
124,BD FLORENCE ARTHAUD,ARTHAUD (BD FLORENCE ARTHAUD),Toulouse,31555,2017-12-06,2017-01-01,ENTRE RUE BLIXEN ET IMP TOCQUEVILLE,VERS BD NETWILLER,False,5999.0,43.643220235091206,1.4559364237921966
125,RUE MARC SANGNIER,SANGNIER (RUE MARC SANGNIER),Toulouse,31555,2017-12-15,2017-01-01,ENTRE RUE COLL ET RUE CALMETTE,VERS RUE CALMETTE,True,681.0,43.598598180552074,1.4238163309454368
126,CHE SAINT JAMES,JAMES (CHE SAINT JAMES),Cornebarrieu,31150,2018-01-10,2018-01-01,COTE RTE DE MONDONVILLE,VERS RTE DE MONDONVILLE,False,127.0,43.65501247607185,1.3267047729433445
127,RUE JOSEPH KESSEL,KESSEL (RUE JOSEPH KESSEL),Blagnac,31069,2018-01-10,2018-01-01,ENTRE ALL MURIERS ET RUE PAGNOL,VERS ALL DES MURIERS,False,125.0,43.638086486303536,1.3914600486827453
128,RUE TINO ROSSI,ROSSI (RUE TINO ROSSI),Toulouse,31555,2017-01-16,2017-01-01,ENTRE RUE SIGNORETE ET PL THILL,VERS RTE SAINT SIMON,True,275.0,43.56406774000692,1.368543381917811
129,CHE DES BOURDETS,BOURDETS (CHE DES BOURDETS),Tournefeuille,31557,2017-01-13,2017-01-01,ENTRE CHE PAHIN ET CHE ARMAGNAC,VERS CHE ARMAGNAC,False,223.0,43.5858970821489,1.318634822004469
130,RUE SIMONE SIGNORET,SIGNORET (RUE SIMONE SIGNORET),Toulouse,31555,2017-01-16,2017-01-01,ENTRE RUE PEDRICO ET IMP DEOUME,VERS RUE PEDRICO,False,95.0,43.564403794524296,1.3656764964518862
131,CHE DES BOURDETTES,BOURDETTES (CHE DES BOURDETTES),Cugnaux,31157,2016-10-06,2016-01-01,ENTRE RUE DES TROUBADOURS ET RTE DE TOULOUS,VERS RTE DE TOULOUSE,False,608.0,43.552280033702495,1.3529307707951455
132,RUE ARISTIDE BERGES,BERGES (RUE ARISTIDE BERGES),Cugnaux,31157,2016-10-06,2016-01-01,ENTRE RUE PLANTE ET RUE SABATIER,VERS RTE DE TOULOUSE,False,1958.0,43.554049570510585,1.3682567804662513
133,BD DU GENERAL DE GAULLE,GAULLE (BD DU GENERAL DE GAULLE),Colomiers,31149,2016-11-25,2016-01-01,ENTRE GIR DU LANGUEDOC ET RPT GASCOGNE,VERS BD DE GASCOGNE,False,6071.0,43.609445046394335,1.3274892847241981
134,CHE DU CHEVREFEUILLE,CHEVREFEUILLE (CHE DU CHEVREFEUILLE),Toulouse,31555,2016-11-25,2016-01-01,ENTRE RTE DE BAYONNE ET AV BRUNAUD,VERS AV BRUNAUD,False,4138.0,43.611183754407705,1.35523464438879
135,RUE ROSA PARKS,PARKS (RUE ROSA PARKS),Toulouse,31555,2016-11-23,2016-01-01,ENTRE RUE ROQUEMAUREL ET AV DE LOMBEZ,VERS AV DE LOMBEZ,False,222.0,43.595464278632825,1.414443561587675
136,RUE PAGES,PAGES (RUE PAGES),Toulouse,31555,2017-03-13,2017-01-01,ENTRE RTE DE LAUNAGUET ET AV DE FRONTON,VERS AV DE FRONTON,True,481.0,43.62789943729266,1.4356205136384215
137,RTE DE SEYSSES,SEYSSES (RTE DE SEYSSES),Toulouse,31555,2017-01-27,2017-01-01,ENTRE RUE CHARPENTIER ET RUE BERNADETTE,VERS RTE D'ESPAGNE,False,4340.0,43.54417016675966,1.383765231112255
138,RUE DES EGLANTINES,EGLANTINES (RUE DES EGLANTINES),Blagnac,31069,2017-01-25,2017-01-01,,VERS CHE D'AUSSONNE,True,309.0,43.639378839139745,1.3865410355176122
139,RUE AUGUSTE BARTHOLDI,BARTHOLDI (RUE AUGUSTE BARTHOLDI),Toulouse,31555,2016-12-08,2016-01-01,ENTRE RUE DES ARTISTES ET RUE NAUDIN,VERS RUE NAUDIN,True,147.0,43.61270013512449,1.410680246928281
140,CHE SAINT PIERRE,PIERRE (CHE SAINT PIERRE),Tournefeuille,31557,2017-01-13,2017-01-01,ENTRE CHE PAHIN ET RUE DE TOURAINE,VERS CHE PAHIN,False,2374.0,43.583770023465036,1.3311976132334336
141,RUE DES VIGNES,VIGNES (RUE DES VIGNES),Toulouse,31555,2016-11-28,2016-01-01,ENTRE RUE ROSTAND ET ROCADE,VERS RUE ROSTAND,False,1363.0,43.64838220987892,1.4522716857700777
142,CHE LASSERRE,LASSERRE (CHE LASSERRE),Flourens,31184,2017-02-21,2017-01-01,ENTRE IMP EN BATUT ET RTE DE CASTRES,VERS RTE DE CASTRES,False,1221.0,43.59483097171222,1.5702290833279
143,AV DES HERBETTES,HERBETTES (AV DES HERBETTES),Toulouse,31555,2016-11-12,2016-01-01,ENTRE CHE DE LA BUTTE ET AV DE LESPINET,VERS AV DE LESPINET,False,3321.0,43.578369769453026,1.4717964659266063
144,AV EDOUARD BELIN,BELIN (AV EDOUARD BELIN),Toulouse,31555,2016-11-12,2016-01-01,ENTRE AV ROCHE ET AV DE LESPINET,VERS ROCADE,False,6688.0,43.56738503722818,1.4757101198079567
145,RUE DE LONGCHAMP,LONGCHAMP (RUE DE LONGCHAMP),Toulouse,31555,2018-10-15,2018-01-01,ENTRE RUE VALLAURIS ET RUE LAVANDOU,VERS RTE DE SAINT SIMON,False,345.0,43.58679255225289,1.4096678244729546
146,RUE DU PIC DE JER,JER (RUE DU PIC DE JER),L'union,31561,2018-11-12,2018-01-01,ENTRE MONT PERDU ET ALL RONCEVAUX,VERS RUE DU MONT LOUIS,False,462.0,43.65144533551237,1.4775173571976803
147,CHE DE L ARMEE,ARMEE (CHE DE L ARMEE),L'union,31561,2019-01-08,2019-01-01,ENTRE RTE DE LAVAUR ET CHE DE MONTBERON,VERS CHE DE MONTBERON,False,498.0,43.63591654379975,1.493389135344047
148,RUE JOSEPH HUBERT,HUBERT (RUE JOSEPH HUBERT),Balma,31044,2018-12-04,2018-01-01,ENTRE RUE LUAN ET RUE VIDAILHAN,VERS RUE DE LUAN,False,412.0,43.62490466531454,1.4923624479756459
149,RUE DE LA VOIE ROMAINE,ROMAINE (RUE DE LA VOIE ROMAINE),Gagnac-Sur-Garonne,31205,2018-03-15,2018-01-01,ENTRE RUE BEAUTE ET RUE NOVITAL,VERS RD 63,False,880.0,43.70273872357708,1.3782269594637158
150,ALL DE FERRAT,FERRAT (ALL DE FERRAT),Seilh,31541,2018-03-07,2018-01-01,ENTRE PL DU BOURG ET RTE DE GRENADE,VERS PL DU BOURG,False,397.0,43.695329519188114,1.3518326414551516
151,RUE PIERRE ET MARIE CURIE,CURIE (RUE PIERRE ET MARIE CURIE),Aucamville,31022,2018-05-11,2018-01-01,ENTRE RUE DES PEUPLIERS ET RUE EFFEIL,VERS RUE EFFEIL,False,1303.0,43.661973027883285,1.4184359142236724
152,BD DE L EUROPE,EUROPE (BD DE L EUROPE),Colomiers,31149,2018-04-05,2018-01-01,ENTRE BD SEVERAC ET AV SAINT GRANIER,VERS AV SAINT GRANIER,False,5714.0,43.597933331226635,1.3616943104415116
153,RUE DE LA GRAVETTE,GRAVETTE (RUE DE LA GRAVETTE),Toulouse,31555,2018-05-14,2018-01-01,ENTRE RUE CUGNAUX ET AV BILLIERES,VERS AV BILLIERES,True,1857.0,43.594698984854524,1.4235414315723194
154,RUE PIERRE ET MARIE CURIE,CURIE (RUE PIERRE ET MARIE CURIE),Aucamville,31022,2018-05-11,2018-01-01,ENTRE RUE DES PEUPLIERS ET RUE EFFEIL,VERS AV DES ETATS UNIS,False,1918.0,43.661973027883285,1.4184359142236724
155,RUE ALAIN FOURNIER,FOURNIER (RUE ALAIN FOURNIER),Toulouse,31555,2018-05-12,2018-01-01,ENTRE VOIE SORTIE ROCADE ET RUE CLOS,VERS RTE DE BAYONNE,False,2628.0,43.60793251491183,1.3719560359904701
156,RUE SARAH BERNHARDT,BERNHARDT (RUE SARAH BERNHARDT),Toulouse,31555,2018-05-14,2018-01-01,ENTRE PL MICHAUD ET IMP MARVINGT,VERS RUE MEITNER,False,2254.0,43.65267233326073,1.4352694293156518
157,RUE MIRABEAU,MIRABEAU (RUE MIRABEAU),Tournefeuille,31557,2018-05-15,2018-01-01,ENTRE RUE DU 14 JUILLET,VERS AV LECLERC,False,94.0,43.575478206465036,1.3288713706394617
158,RUE DU PONT MONTAUDRAN,MONTAUDRAN (RUE DU PONT MONTAUDRAN)_TOULOUSE,Toulouse,31555,2018-03-19,2018-01-01,ENTRE PL DUPUY ET PORT ST SAUVEUR,VERS PORT ST SAUVEUR,True,7809.0,43.59874788534348,1.455924452540474
159,RUE ESCOUS. MONTGAILLARD,MONTGAILLARD (RUE ESCOUS. MONTGAILLARD),Toulouse,31555,2018-03-19,2018-01-01,ENTRE RUE ESPINASSE ET RUE VELANE,VERS PL MONTOULIEU,True,553.0,31.664435000000026,-82.02624999999995
160,RUE DU BEARNAIS,BEARNAIS (RUE DU BEARNAIS),Toulouse,31555,2018-03-19,2018-01-01,ENTRE BD LASCROSSES ET BD MARQUETTE,VERS BD DE LA MARQUETTE,True,7588.0,43.609110755603446,1.4275593779996136
161,RUE SAINT HONEST,HONEST (RUE SAINT HONEST),Toulouse,31555,2018-03-19,2018-01-01,ENTRE IMP RUDE ET RUE DES CHALETS,VERS RUE DES CHALETS,True,122.0,43.61447019935642,1.4416948756201067
162,BD DE L EMBOUCHURE,EMBOUCHURE (BD DE L EMBOUCHURE),Toulouse,31555,2018-06-15,2018-01-01,ENTRE RUE GARROS ET RUE MONTMORENCY,VERS RUE MONTMORENCY,True,17128.0,43.61525940701316,1.4337134977411392
163,RUE DE LA SAINTE FAMILLE,FAMILLE (RUE DE LA SAINTE FAMILLE),Toulouse,31555,2018-09-18,2018-01-01,ENTRE AV DES MINIMES ET RUE BOURBAKI,VERS RUE BOURBAKI,True,2637.0,43.6176217066628,1.4338852729072002
164,RUE GUTENBERG,GUTENBERG (RUE GUTENBERG),Toulouse,31555,2018-09-18,2018-01-01,ENTRE RUE JAMES ET BD DES MINIMES,VERS RUE JAMMES,True,318.0,43.616785061832886,1.4378000709404262
165,BD DES RECOLLETS,RECOLLETS (BD DES RECOLLETS),Toulouse,31555,2018-08-31,2018-01-01,ENTRE BELVEDERE ET PT GARIGLIANO,VERS PONT GARIGLIANO,False,6114.0,43.58403620264763,1.4451996306572952
166,RUE SALVY,SALVY (RUE SALVY),Toulouse,31555,2018-09-18,2018-01-01,ENTRE RUE DOUAUMONT ET RUE NEGRENEYS,VERS RUE NEGRENEYS,False,420.0,43.617516706825356,1.4419032848506006
167,BD DES FONTANELLES,FONTANELLES (BD DES FONTANELLES),L'union,31561,2018-09-18,2018-01-01,ENTRE RUE DES TAMARIS ET RUE DES BLEUETS,VERS RTE DE BESSIERES,False,3415.0,43.65861002526182,1.4773599756390152
168,ALL DE CARPENTRAS,CARPENTRAS (ALL DE CARPENTRAS),Colomiers,31149,2018-11-15,2018-01-01,ENTRE AV DES MAROTS ET ALL AVIGNON,VERS ALL D'AVIGNON,True,113.0,43.599834484501834,1.3251960600646877
169,RUE DE GASCOGNE,GASCOGNE (RUE DE GASCOGNE),Toulouse,31555,2018-10-15,2018-01-01,ENTRE RUE DE CUGNAUX ET AV BILLIERES,VERS AV BILLIERES,True,1050.0,43.59587523970248,1.4276304036151344
170,AV DU PARC,PARC (AV DU PARC),Quint-Fonsegrives,31445,2018-11-15,2018-01-01,ENTRE RUE DES SOURCES ET RUE DE L'OCCITANIE,VERS AV DE CERDAGNE,False,479.0,43.587037342741894,1.5296805501261541
171,RUE UNIVERSITE DU MIRAIL,MIRAIL (RUE UNIVERSITE DU MIRAIL),Toulouse,31555,2018-11-08,2018-01-01,,VERS UNIVERSITE,False,1316.0,43.57558658089018,1.4021229929304284
172,CHE DE MOULIS,MOULIS (CHE DE MOULIS),Toulouse,31555,2018-11-22,2018-01-01,ENTRE CHE CROIX BENITE ET RTE DE FRONTON,VERS AV DE FRONTON,False,3323.0,43.66527240342014,1.4370576509466333
173,RUE EMILE BROUARDEL,BROUARDEL (RUE EMILE BROUARDEL)_TOULOUSE,Toulouse,31555,2014-05-14,2014-01-01,ENTRE LASCROSSES ET FRANKLIN,VERS MARQUETTE,False,383.0,43.60975087257431,1.4256916876370418
174,RUE JACQUES LABATUT,LABATUT (RUE JACQUES LABATUT)_TOULOUSE,Toulouse,31555,2014-05-14,2014-01-01,ENTRE POTIERS ET ST SAUVEUR,SENS UNIQUE VERS ST SAUVEUR,True,388.0,43.598080742444104,1.4549472417086706
175,RUE DE BOURRASSOL,BOURRASSOL (RUE DE BOURRASSOL),Toulouse,31555,2014-04-03,2014-01-01,ENTRE ROUDIL ET AUTEZAC,SENS UNIQUE VERS BD JEAN BRUNHES,True,1100.0,43.60152122275885,1.4248133732078159
176,AV MAURICE HAURIOU,HAURIOU (AV MAURICE HAURIOU),Toulouse,31555,2014-05-14,2014-01-01,ENTRE MOULIN DU CHATEAU ET GARONNETTE,VERS NOULIN DU CHATEAU,False,5574.0,43.593510860624754,1.4423912384870707
177,RTE DE FONBEAUZARD,FONBEAUZARD (RTE DE FONBEAUZARD),Fonbeauzard,31186,2014-04-18,2014-01-01,ENTRE RTE DE BESSIERES ET RTE DE FONBEAUZAR,LES DEUX SENS,False,4741.0,43.675959917391964,1.4283201300546435
178,RUE MATABIAU,MATABIAU (RUE MATABIAU)_TOULOUSE,Toulouse,31555,2014-05-14,2014-01-01,ENTRE VOLTA ET BONREPOS,VERS BONREPOS,False,3539.0,43.61188725098548,1.4481080407937628
179,CHE DE LASBADORQUES,LASBADORQUES (CHE DE LASBADORQUES),Cornebarrieu,31150,2014-06-10,2014-01-01,ENTRE CHE DE CORDELLE,VERS DEUX PROVINCES,False,320.0,43.65452061863679,1.3049689904623614
180,CHE DE BOUDOU,BOUDOU (CHE DE BOUDOU),Launaguet,31282,2017-06-20,2017-01-01,ENTRE RUE CARNOT ET AV CONDORCET,VERS AV CONDARCET,False,5679.0,43.663622158346314,1.444145121626257
181,CHE D EN SIGAL,SIGAL (CHE D EN SIGAL)__COLOMIERS,Colomiers,31149,2017-04-19,2017-01-01,ENTRE ALL DE LA BLANQUETTE (est) ET CHE D'E,VERS AV ALLENDE,False,53.0,43.604407400016086,1.3307790456879105
182,IMP SIMONE DUTEMPS,DUTEMPS (IMP SIMONE DUTEMPS),Toulouse,31555,2017-04-20,2017-01-01,ENTRE RUE EGLANTINE,VERS ALL DE BARCELONE,False,124.0,43.610591006114525,1.423202028821973
183,RUE SAINT BERNARD,BERNARD (RUE SAINT BERNARD),Toulouse,31555,2017-05-15,2017-01-01,ENTRE BERALDI ET BD DE STRASBOURG,VERS BD DE STRASBOURG,True,2407.0,43.60896668302346,1.4439292122814482
184,PL VICTOR HUGO,HUGO (PL VICTOR HUGO),Toulouse,31555,2017-05-15,2017-01-01,NORD,VERS RUE DU REMPART,True,766.0,43.60604615093952,1.446442374410669
185,RUE JEAN HONORE FRAGONARD,FRAGONARD (RUE JEAN HONORE FRAGONARD),Toulouse,31555,2017-09-12,2017-01-01,ENTRE RUE DES CHAMOIS ET RUE DES VIOLETTES,VERS RUE DES CHAMOIS,False,102.0,43.640975045804396,1.4436350909264917
186,RTE DE GAURE,GAURE (RTE DE GAURE),Balma,31044,2017-09-06,2017-01-01,ENTRE AV THEGRA ET RTE CHAPITRE,VERS AV THERGA,False,3404.0,43.63293014123963,1.5045546845352464
187,RUE DE L INVALIDE,INVALIDE (RUE DE L INVALIDE),Toulouse,31555,2017-06-12,2017-01-01,ENTRE RUE DE L'ISERE ET AV DE CASTRES,VERS AV DE CASTRES,False,353.0,43.59445003494362,1.4906001097944568
188,RUE DANIELLE CASANOVA,CASANOVA (RUE DANIELLE CASANOVA),Toulouse,31555,2017-09-19,2017-01-01,ENTRE RUE DE TOUL ET RUE MOLLES,VERS RUE MOLLES,True,1800.0,43.61300991926619,1.4365825399076513
189,RUE SAINTE CLAIRE,CLAIRE (RUE SAINTE CLAIRE),Toulouse,31555,2017-09-20,2017-01-01,ENTRE RUE NAVES ET RUE JULIA,VERS RUE JULIA,False,165.0,43.59345366393931,1.4849581087932169
190,BD PIERRE SEMARD,SEMARD (BD PIERRE SEMARD)__TOULOUSE,Toulouse,31555,2017-04-19,2017-01-01,ENTRE AV DE LYON ET PONT DU 19 MARS,VERS PONT RIQUET,True,15603.0,43.61141752417552,1.4530195955553986
191,RTE DE CASTELGINEST,CASTELGINEST (RTE DE CASTELGINEST),Brugui√æres,31091,2017-03-28,2017-01-01,ENTRE AV DU BRUGUET ET RTE DE BRUGUIERES,VERS RTE DE BRUGUIERES,False,3669.0,43.71996324164822,1.4158374396559101
192,RUE DE CUGNAUX,CUGNAUX (RUE DE CUGNAUX),Toulouse,31555,2017-03-22,2017-01-01,ENTRE PL MALE ET RUE NUNGESSER,VERS ALL CHARLES DE FITTE,False,3605.0,43.59354894163771,1.4252612745276636
193,ALL DES FRERES HIGOUNENG,HIGOUNENG (ALL DES FRERES HIGOUNENG),Tournefeuille,31557,2017-09-14,2017-01-01,ENTRE AV GASCOGNE ET RUE AUVERGNE,VERS AV DE GASCOGNE,False,2262.0,43.58896769315858,1.3390593657152476
194,RTE DE TOURNEFEUILLE,TOURNEFEUILLE (RTE DE TOURNEFEUILLE),Cugnaux,31157,2017-09-14,2017-01-01,ENTRE RUE DE L'OCCITANIE ET CHE DE CASSEBOI,VERS RUE DE L'OCCITANIE,False,3783.0,43.556590103797696,1.3336401468697696
195,RUE FRANKLIN,FRANKLIN (RUE FRANKLIN),Toulouse,31555,2017-09-18,2017-01-01,ENTRE ALL DE BARCELONE ET RUE BROUARDEL,VERS ALL DE BARCELONE,False,148.0,43.609198009256865,1.4254042976127774
196,AV DES ACACIAS,ACACIAS (AV DES ACACIAS),Union,31561,2017-09-12,2017-01-01,ENTRE COUDRIERS ET TAMARINS,VERS RUE DES CEDRES,False,742.0,43.65852982754091,1.4732931592090182
197,RTE D AUCH,AUCH (RTE D AUCH),Colomiers,31149,2017-03-17,2017-01-01,ENTRE RTE D'AUCH ET ESP MITTERRAND,VERS ESP MITTERRAND (Pibrac),True,5038.0,43.60524008200115,1.2893436326241627
198,BD DEODAT DE SEVERAC,SEVERAC (BD DEODAT DE SEVERAC),Toulouse,31555,2017-09-25,2017-01-01,ENTRE RUE VESTREPAIN ET AV DE MURET,VERS AV DE MURET,False,5190.0,43.58735437113909,1.4250768605882331
199,RUE DU CHAIREDON,CHAIREDON (RUE DU CHAIREDON),Toulouse,31555,2016-03-25,2016-01-01,ENTRE RUE DE TEINTURIERS ET RUE DU PONT VIE,VERS PL OLIVIER,True,447.0,43.59749737709144,1.435008590119072
200,RUE ACHILLE VIADIEU,VIADIEU (RUE ACHILLE VIADIEU),Toulouse,31555,2016-03-24,2016-01-01,ENTRE FOURCADE ET RECOLLETS,VERS RECOLLETS,True,3159.0,43.58936762669765,1.4422145783940394
201,RUE MAURIES,MAURIES (RUE MAURIES),Toulouse,31555,2016-03-21,2016-01-01,ENTRE AV DE L'HERS ET AV DE LA JUNCASSE,VERS AV DE LA JUNCASSE,False,70.0,43.612514972521524,1.478295844260521
202,RUE DOMINIQUE INGRES,INGRES (RUE DOMINIQUE INGRES),Toulouse,31555,2016-04-08,2016-01-01,ENTRE PRINTEMPS ET CHALETS,VERS RUE DU PRINTEMPS,True,2091.0,43.61402302285981,1.442352164721883
203,RUE DE L ETOILE,ETOILE (RUE DE L ETOILE),Toulouse,31555,2016-03-14,2016-01-01,ENTRE CANAL ET RIQUET,VERS RUE RIQUET,True,1832.0,43.60140800094969,1.4540423882042117
204,PL DU PARLEMENT,PARLEMENT (PL DU PARLEMENT),Toulouse,31555,2016-03-14,2016-01-01,ENTRE RENFORTS ET SALIN,VERS PL DU SALIN,False,5423.0,43.593850877227574,1.4441011561794699
205,RUE DE BORNIER,BORNIER (RUE DE BORNIER),Toulouse,31555,2016-06-11,2016-01-01,ENTRE RUE BERTHELOT ET AV DU CIMETIERE,VERS AV DU CIMETIERE,True,1096.0,43.607704881174904,1.4593826228568036
206,AV DES PYRENEES,PYRENEES (AV DES PYRENEES),L'union,31561,2016-06-16,2016-01-01,ENTRE RUE SAINT TROPEZ ET RUE CABANIS,VERS AV DANCELLE,False,6539.0,43.65217855026054,1.4965995368412737
207,AV DE LAVAUR,LAVAUR (AV DE LAVAUR),Toulouse,31555,2016-06-10,2016-01-01,ENTRE RUE DES PAQUERETTES ET AV CAMPARDON,VERS AV CAMPARDON,False,3495.0,43.622489505308714,1.4632481913630249
208,AV D ANDROMEDE,ANDROMEDE (AV D ANDROMEDE),Blagnac,31069,2016-07-01,2016-01-01,ENTRE RUE PETIT ET RUE FISHL,VERS RD902,False,2814.0,43.655401631641375,1.367484383734648
209,CHE DE CAZALBARBIER,CAZALBARBIER (CHE DE CAZALBARBIER)_LAUNAGUET,Launaguet,31282,2016-03-13,2016-01-01,ENTRE SIGNORET ET COMBES,VERS CHE DES COMBES,False,1335.0,43.67774627016765,1.4595820056085589
210,AV DE FRONTON,FRONTON (AV DE FRONTON),Toulouse,31555,2016-03-13,2016-01-01,ENTRE BARRIERE DE PARIS ET RUE PAGES,VERS BARRIERE DE PARIS,False,3483.0,43.63671831323792,1.4333090789595917
211,CHE DE LA SALVETAT,SALVETAT (CHE DE LA SALVETAT),Colomiers,31149,2016-09-12,2016-01-01,ENTRE RPT JUPITER ET CHE DE LA NASQUE,VERS N124,False,9301.0,43.60165006998047,1.300048266036366
212,AV DU PARC,PARC (AV DU PARC),Blagnac,31069,2016-09-12,2016-01-01,ENTRE RUE DE NAVARRE ET AV DE GONIN,VERS A621,False,5693.0,43.630451716732296,1.3883355549137393
213,CHE DE TOURNEFEUILLE,TOURNEFEUILLE (CHE DE TOURNEFEUILLE),Toulouse,31555,2016-01-13,2016-01-01,ENTRE PETIT CHE TOURNEFEUILLE ET CHE DU TOU,VERS CHE DU TOUCH,False,1625.0,43.59195004850251,1.3622300891961032
214,RUE SAINT ROCH,ROCH (RUE SAINT ROCH),Toulouse,31555,2016-09-21,2016-01-01,ENTRE  RUE DANTON ET RUE DES MIRACLES,VERS RUEDES MIRACLES,False,1266.0,43.57921287393486,1.446398833230097
215,RUE GEORGES PICOT,PICOT (RUE GEORGES PICOT),Toulouse,31555,2017-12-04,2017-01-01,ENTRE RUE STE PHILOMENE ET RUE LEO LAGRANGE,VERS ALL DES DEMOISELLES,True,1396.0,43.58847046400914,1.4543054224466487
216,AV DU BICENTENAIRE,BICENTENAIRE (AV DU BICENTENAIRE),Balma,31044,2017-12-01,2017-01-01,ENTRE RUE ETATS GENERAUX ET RUE REPUBLIQUE,VERS AV DES ARENES,False,648.0,43.4144046106846,1.393466351299075
217,CHE DE BOUDOU,BOUDOU (CHE DE BOUDOU),Toulouse,31555,2017-12-07,2017-01-01,ENTRE RUE FINIISTERE ET RUE DES SABLES,VERS RUE DES SABLES,False,3266.0,43.651026561207665,1.4446417133745029
218,RUE DE FENOUILLET,FENOUILLET (RUE DE FENOUILLET),Toulouse,31555,2017-11-27,2017-01-01,ENTRE BD SILVIO TRENTIN ET RUE BRIEUX,VERS BRIEUX,True,3255.0,43.62847987879491,1.4267936977032165
219,RUE ARRIA LY,LY (RUE ARRIA LY),Toulouse,31555,2017-11-22,2017-01-01,ENTRE CHE NIBOUL ET RUE STE NATHALIE,VERS RUE STE NATHALIE,True,756.0,43.63978619292015,1.450129398325057
220,RUE EMILE BARRIERE,BARRIERE (RUE EMILE BARRIERE),Toulouse,31555,2017-11-27,2017-01-01,ENTRE RUE FENOUILLET ET RUE TALLIEN,VERS RUE DE FENOUILLET,False,1375.0,43.6267355800623,1.4278355069723152
221,CHE DES IZARDS,IZARDS (CHE DES IZARDS),Toulouse,31555,2017-12-14,2017-01-01,ENTRE RUE BORDELONGUE ET RTE LAUNAGUET,VERS RUE BORDELONGUE,False,717.0,43.65604891780548,1.4410583008212505
222,RUE EDMOND ROSTAND,ROSTAND (RUE EDMOND ROSTAND),Toulouse,31555,2017-12-07,2017-01-01,ENTRE RUE CHOPIN ET RUE RIGAL,VERS CHE VIRBENT,False,752.0,43.6410194365786,1.4488601875970606
223,CHE DE LESTANG,LESTANG (CHE DE LESTANG),Toulouse,31555,2017-10-05,2017-01-01,ENTRE RUE DELDI ET CHE MONLONG,VERS RTE DE SEYSSES,False,4513.0,43.552890372551964,1.393555344167955
224,RUE PIERRE DELDI,DELDI (RUE PIERRE DELDI),Toulouse,31555,2017-10-05,2017-01-01,ENTRE CHE LESTANG ET IMP ANDURAN,VERS IMP ANDURAN,False,327.0,43.55466155083501,1.3918764594410031
225,RUE DE CAULET,CAULET (RUE DE CAULET),Toulouse,31555,2017-09-28,2017-01-01,ENTRE GIR ESCOLA ET RUE TERCE,VERS GIR ESCOLA,False,6415.0,43.60628003613836,1.3566686597780566
226,CHE DE PELLEPORT,PELLEPORT (CHE DE PELLEPORT)_TOULOUSE,Toulouse,31555,2017-11-07,2017-01-01,ENTRE BD DES CRETES ET AV ANGLA,VERS BD DES CRETES,False,244.0,43.60861015718307,1.4757634831044288
227,CHE DU PRADEL,PRADEL (CHE DU PRADEL),Saint-Jory,31490,2017-11-07,2017-01-01,ENTRE CHE BELDOU ET CHE TRUGUETTES,VERS CHE TRUGUETTES,False,101.0,43.740153871248886,1.3548765504905342
228,AV FRANCOIS VERDIER,VERDIER (AV FRANCOIS VERDIER),Pibrac,31417,2017-11-29,2017-01-01,ENTRE RTE DE LIVIGNAC ET CHE BELARD,VERS CHE BELARD,False,435.0,43.6248442759632,1.2766866746428198
229,RTE DE TOULOUSE,TOULOUSE (RTE DE TOULOUSE),Seilh,31541,2017-11-29,2017-01-01,ENTRE CHE DE PERCIN ET ALL BOISSON,VERS SEILH,False,13202.0,43.682402665003835,1.3620427675202844
230,RTE DE LEVIGNAC,LEVIGNAC (RTE DE LEVIGNAC),Pibrac,31417,2017-11-29,2017-01-01,ENTRE CHE LASSERE ET CHE GAYNE,VERS CHE LASSERRE,False,3348.0,43.62964385609222,1.2386495194832448
231,CHE DE TUCAUT,TUCAUT (CHE DE TUCAUT),Toulouse,31555,2017-11-30,2017-01-01,ENTRE RUE WEIL ET IMP TUCAUT,VERS CHE DU LOUP,False,6038.0,43.556337161777996,1.370686355607074
232,DEPARTEMENTALE 820,820 (DEPARTEMENTALE 820),Saint-Jory,31490,2017-11-29,2017-01-01,ENTRE LESPINASSE ET RD20,VERS LESPINASSE,False,8571.0,43.74389121522037,1.3688309553962765
233,CHE HENRI BESSEMER,BESSEMER (CHE HENRI BESSEMER),Toulouse,31555,2017-11-16,2017-01-01,ENTRE CHE DU SANG DE SERP ET RUE RAMEAU,VERS BD DE L'EMBOUCHURE,False,498.0,43.61858561766692,1.4237710083260409
234,RUE JEAN PHILIPPE RAMEAU,RAMEAU (RUE JEAN PHILIPPE RAMEAU),Toulouse,31555,2017-11-16,2017-01-01,ENTRE RUE BESSEMER ET BD DE SUISSE,VERS BD DE SUISSE,False,3835.0,43.61895636036227,1.4245113129831437
235,RTE DE LABEGE,LABEGE (RTE DE LABEGE),Toulouse,31555,2017-11-08,2017-01-01,ENTRE RUE NOUADHIBOU ET CHE MALPERE,VERS CHE MALPERE,False,6272.0,43.55913184374531,1.5032800852802097
236,BD DE MAURENS,MAURENS (BD DE MAURENS),Cugnaux,31157,2018-01-31,2018-01-01,ENTRE RUE RUBENS ET RUE MONTEGUT,VERS RUE RUBENS,False,2452.0,43.53577850321481,1.3341056684331014
237,CHE DE RIVALSUPERVIC,RIVALSUPERVIC (CHE DE RIVALSUPERVIC),Toulouse,31555,2017-09-28,2017-01-01,ENTRE CHE DES ETROITS CHE PLANTADE,VERS CHE DES ETROITS,False,2713.0,43.54940972287738,1.4467371433978344
238,CHE DES CANALETS,CANALETS (CHE DES CANALETS),Toulouse,31555,2017-09-28,2017-01-01,ENTRE CHE DES ETROITS ET CHE PECH DAVID,VERS CHE CHE PECH DAVID,False,3014.0,43.56336190206961,1.443410707939864
239,RTE DE SAINT SIMON,SIMON (RTE DE SAINT SIMON),Toulouse,31555,2017-09-25,2017-01-01,ENTRE CHE GUILHERMY ET RUE ROSSI,VERS CHE DE GUILHERMY,False,7795.0,43.569675841228296,1.379615891017272
240,CHE DU VALLON,VALLON (CHE DU VALLON),Toulouse,31555,2017-09-28,2017-01-01,ENTRE CHE DASQUE ET CHE DUGUA,VERS RUE POULHES,False,2095.0,43.554769209615436,1.4545218781891112
241,RTE DE CASTRES,CASTRES (RTE DE CASTRES),Quint-Fonsegrives,31445,2018-02-08,2018-01-01,ENTRE RPT GINESTIERE ET RD64,VERS RPT GINESIERE,False,5712.0,43.58638321693469,1.5433652094901045
242,RUE DE SOUPETARD,SOUPETARD (RUE DE SOUPETARD),Toulouse,31555,2018-03-05,2018-01-01,ENTRE AV PLANA ET RUE FRATERNITE,VERS AV ANGLA,False,1106.0,43.61123038427706,1.474599356961127
243,RUE DE LA CRESSONNIERE,CRESSONNIERE (RUE DE LA CRESSONNIERE),Cugnaux,31157,2015-11-04,2015-01-01,ENTRE RUE DU PIC DU MIDI ET RUE MENDES FRAN,VERS AV DU COMMINGES,False,808.0,43.53254966959232,1.3556949977020536
244,PL ROBERT ESNAULT PELTERIE,PELTERIE (PL ROBERT ESNAULT PELTERIE),Toulouse,31555,2015-11-09,2015-01-01,ENTRE RUE LECRIVAIN ET PL PELTERIE,VERS PL PELTERIE,False,105.0,43.57375004495202,1.487040105968262
245,IMP DE LA FLAMBERE,FLAMBERE (IMP DE LA FLAMBERE),Toulouse,31555,2015-10-02,2015-01-01,ENTRE CHE DE LA FLAMBERE ET IMPASSE,VERS IMPASSE,False,604.0,43.61307898932261,1.3897239971648074
246,RUE GEORGES VIVENT,VIVENT (RUE GEORGES VIVENT),Toulouse,31555,2015-04-24,2015-01-01,ENTRE ALL SAINT SAENS ET RUE PELLETIER,VERS RUE PELLETIER,True,373.0,43.57149846794633,1.3938150449296332
247,RTE DE BAYONNE,BAYONNE (RTE DE BAYONNE),Toulouse,31555,2015-04-24,2015-01-01,ENTRE RUE RUE SENTENAC ET CHE DE LA BOURIET,VERS CHE DE LA BOURIETTE,False,5018.0,43.60940914995713,1.35331711061118
248,ALL DU PIGEONNIER,PIGEONNIER (ALL DU PIGEONNIER),Colomiers,31149,2015-03-30,2015-01-01,ENTRE ROSTAND ET PETIT COLOMBIER,VERS ROSTAND,False,268.0,43.614588965167755,1.3157011900624884
249,CHE DES BOURDETTES,BOURDETTES (CHE DES BOURDETTES),Aucamville,31022,2015-04-08,2015-01-01,ENTRE FAVASSE ET ERABLES,VERS TOULOUSE,False,2627.0,43.66886565694666,1.4313695462355924
250,ALL MAURICE RAVEL,RAVEL (ALL MAURICE RAVEL),Colomiers,31149,2015-03-30,2015-01-01,ENTRE MARTIN ET  PAS RAVEL,VERS VALERY,False,333.0,43.59870104648485,1.3484561668260617
251,RUE PIERRE DE FERMAT,FERMAT (RUE PIERRE DE FERMAT),Toulouse,31555,2015-06-02,2015-01-01,ENTRE RUE MERLANE ET PL SAINT ETIENNE,SENS UNIQUE VERS PL SAINT ETIENNE,True,2230.0,43.59911459521762,1.4491111601013298
252,CHE DU CABANOT,CABANOT (CHE DU CABANOT),Brax,31088,2015-05-27,2015-01-01,ENTRE RUE DE L'ARAMON ET RUE LASPACERES,VERS ARAMON,False,167.0,43.61252163682091,1.2490900669906404
253,RTE D ALBI,ALBI (RTE D ALBI),Toulouse,31555,2015-06-10,2015-01-01,ENTRE A62 ET RUE ROSTAND,VERS A62,False,12198.0,43.64668606956429,1.4702704254498076
254,CHE DE RIBAUTE,RIBAUTE (CHE DE RIBAUTE),Balma,31044,2015-06-25,2015-01-01,ENTRE RTE DE CASTRES ET ZA RIBAUTE,VERS RTE DE CASTRES,False,6177.0,43.587186832393265,1.515685425174324
255,RUE DE LONGCHAMPS,LONGCHAMPS (RUE DE LONGCHAMPS),Tournefeuille,31557,2015-06-12,2015-01-01,ENTRE RUE DE VINCENNES ET RUE GAUGUIN,VERS RUE DE VINCENNES,False,682.0,43.590550058615655,1.3217279195089453
256,RUE JEAN GIONO,GIONO (RUE JEAN GIONO),Tournefeuille,31557,2015-06-12,2015-01-01,ENTRE CHE FOURNOLIS ET RUE PAGNOL,VERS CHE FOURNOLIS,False,306.0,43.590075037716915,1.3177550823044726
257,CHE DE MONLONG,MONLONG (CHE DE MONLONG),Toulouse,31555,2015-06-10,2015-01-01,ENTRE RUE DELDI ET CHE DU LOUP,VERS CHE DE LESTANG,False,952.0,43.55428239725257,1.3880253932827133
258,AV ARTHUR HUC,HUC (AV ARTHUR HUC),Toulouse,31555,2015-12-04,2015-01-01,ENTRE CHE BORDEBLANCHE ET RUE TASTAVIN,VERS AV CORIOLIS,False,5097.0,43.58140767595013,1.3866945447311079
259,RUE DES SALENQUES,SALENQUES (RUE DES SALENQUES),Toulouse,31555,2014-02-14,2014-01-01,ENTRE LAUTMANN ET EMBARTHE,SENS UNIQUE VERS EMBARTHE,True,5305.0,43.6079204830517,1.4385787869458773
260,AV DE GAMEVILLE,GAMEVILLE (AV DE GAMEVILLE),St-Orens-De-Gameville,31506,2014-07-10,2014-01-01,ENTRE CHENES ET SPORTS,les 2 sens,False,14600.0,43.55370274791891,1.5328990859066691
261,AV CLAUDE GONIN,GONIN (AV CLAUDE GONIN),Blagnac,31069,2014-06-10,2014-01-01,ENTRE PARC ET SERVANTY,VERS SERVANTY,False,4686.0,43.624940660005194,1.3866891416753018
262,RTE D ESPAGNE,ESPAGNE (RTE D ESPAGNE)_TOULOUSE,Toulouse,31555,2014-09-30,2014-01-01,ENTRE EISENHOWER ET SILOS,VERS SILOS,False,11191.0,43.568881575062875,1.4235422646656999
263,AV DES ACACIAS,ACACIAS (AV DES ACACIAS),Union,31561,2014-10-02,2014-01-01,ENTRE COUDRIERS ET TAMARINS,LES 2 SENS,False,1509.0,43.65852982754091,1.4732931592090182
264,RUE JEAN PALAPRAT,PALAPRAT (RUE JEAN PALAPRAT),Toulouse,31555,2014-11-03,2014-01-01,ENTRE COLOMBETTE ET PERI,SENS UNIQUE VERS PERI,True,461.0,43.60536006378337,1.452296601673729
265,BD MATABIAU,MATABIAU (BD MATABIAU),Toulouse,31555,2014-11-03,2014-01-01,ENTRE ORLEAND ET JANY,SENS UNIQUE VERS JANY,True,21235.0,43.614916419746024,1.4430070505152002
266,CHE DE CORDELLE,CORDELLE (CHE DE CORDELLE),Cornebarrieu,31150,2014-11-14,2014-01-01,SECTION OUEST CHE DE CORDELLE,VERS CHE DE LASBADORQUES,False,111.0,43.65527742203608,1.30141734803578
267,AV DE LARRIEU,LARRIEU (AV DE LARRIEU),Toulouse,31555,2014-02-18,2014-01-01,ENTRE RTE D'Espagne ET PERRIN,VERS RTE D'Espagne,False,2301.0,43.55420024524421,1.4113695597393394
268,RUE DE LA VIEILLE EGLISE,EGLISE (RUE DE LA VIEILLE EGLISE),Cugnaux,31157,2015-01-04,2015-01-01,ENTRE CHE DE CUGNALA ET RUE DES CYTISES,VERS VILLENEUVE TOLOSANE,False,3188.0,43.53474219209643,1.3451744374323429
269,CHE DES COTES DE PECH DAVID,DAVID (CHE DES COTES DE PECH DAVID),Toulouse,31555,2015-11-16,2015-01-01,ENTRE CHE DES CANALETS ET CHE DU VALLON,VERS CHE DU VALLON,False,2091.0,43.57263294855908,1.443731185232403
270,AV IRENE JOLIOT CURIE,CURIE (AV IRENE JOLIOT CURIE),Toulouse,31555,2015-11-16,2015-01-01,ENTRE RTE D'ESPAGNE ET AV CURIEN,VERS RTE D'ESPAGNE,False,2487.0,43.554750621496936,1.4307830270538542
271,RUE JACQUES JEAN ESQUIE,ESQUIE (RUE JACQUES JEAN ESQUIE),Toulouse,31555,2015-11-12,2015-01-01,ENTRE RUE JAUSSELY ET RUE COTY,VERS RUE JAUSSELY,False,751.0,43.580913316556185,1.3939733337717606
272,AV DU HUIT MAI 1945,MAI (AV DU HUIT MAI 1945),Saint-Alban,31467,2015-12-02,2015-01-01,ENTRE AV DE FRONTON ET A62,VERS AV DE FRONTON,False,12619.0,43.68785102809658,1.4142624216084767
273,RUE ANTOINE DEVILLE,DEVILLE (RUE ANTOINE DEVILLE),Toulouse,31555,2015-12-10,2015-01-01,ENTRE LAUTHMAN ET FOIX,SENS UNIQUE VERS FOIX,True,1874.0,43.60537144619823,1.4398962907613317
274,RUE CLAUDE VERNET,VERNET (RUE CLAUDE VERNET),Toulouse,31555,2015-12-11,2015-01-01,ENTRE CHE LAPUJADE ET CHE RAYNAL,VERS CHE LAPUJADE,False,488.0,43.62844983164372,1.455012803910935
275,CHE DE LA RIVIERE,RIVIERE (CHE DE LA RIVIERE),Saint-Jory,31490,2016-10-11,2016-01-01,ENTRE CHE PERRUQUET ET CHE DU RAMIER,VERS CHE DU RAMIER,False,813.0,43.73181695164252,1.339213161651207
276,CHE CORDEAU,CORDEAU (CHE CORDEAU),Toulouse,31555,2016-10-11,2016-01-01,ENTRE RUE CAZENEUVE ET RUE NEGRENYS,VERS RUE NEGRENEYS,False,111.0,43.62534161212737,1.4443991878347266
277,RUE ANDRE VILLET,VILLET (RUE ANDRE VILLET),Toulouse,31555,2016-11-14,2016-01-01,ENTRE AV DAURAT ET RUE COSMONAUTES,VERS RUE DES COSMONAUTES,False,5110.0,43.56484301379966,1.4921643655081984
278,RTE DE LABEGE,LABEGE (RTE DE LABEGE),Toulouse,31555,2016-11-12,2016-01-01,ENTRE RUE SERVANTY ET RUE NOUADHIBOU,VERS RTE DE REVEL,False,4535.0,43.55913184374531,1.5032800852802097
279,CHE DE CATALA,CATALA (CHE DE CATALA),Toulouse,31555,2016-12-01,2016-01-01,ENTRE RUE ALEMBERT ET CHE RAMELET MOUNDI,VERS CHE RAMELET MOUNDI,False,217.0,43.58761820430272,1.381777885627537
280,RTE DE BAYONNE,BAYONNE (RTE DE BAYONNE),Toulouse,31555,2016-11-25,2016-01-01,ENTRE PL BISSON ET RUE VELASQUEZ,VERS RUE VELASQUEZ,False,6601.0,43.60940914995713,1.35331711061118
281,RUE BERTRAND DE L ISLE,ISLE (RUE BERTRAND DE L ISLE),Toulouse,31555,2017-03-17,2017-01-01,ENTRE RUE SAINTE ANNE ET ALL VERDIER,VERS ALL VERDIER,True,3475.0,43.600060042738946,1.4515300893464769
282,RUE DES TROENES,TROENES (RUE DES TROENES),Toulouse,31555,2017-03-17,2017-01-01,ENTRE RUE DES PEUPLIERS ET CHE 7 DENIERS,VERS RUE DES PEUPLIERS,False,913.0,43.61793905920009,1.4149003062067118
283,ALL MARC SAINT SAENS,SAENS (ALL MARC SAINT SAENS),Toulouse,31555,2018-01-10,2018-01-01,ENTRE AV BAZERQUE ET RUE VIVENT,VERS RUE VIVENT,True,3462.0,43.57092294046374,1.3932900330639484
284,CHE DES RAMASSIERS,RAMASSIERS (CHE DES RAMASSIERS),Colomiers,31149,2018-01-10,2018-01-01,ENTRE BD EUROPE ET AV SAND,VERS AV SAND,False,5742.0,43.59677439149713,1.3588345032726656
285,AV DE LA MARCAISSONNE,MARCAISSONNE (AV DE LA MARCAISSONNE),Toulouse,31555,2017-09-25,2017-01-01,ENTRE CHE DES TUILERIES ET AV E GAMEVILLE,VERS AV DE GAMEVILLE,False,8098.0,43.57444101581557,1.5020616924553567
286,RTE DE BAYONNE,BAYONNE (RTE DE BAYONNE),Toulouse,31555,2017-09-28,2017-01-01,ENTRE N124 ET CHE CHEVREFEUILLE,VERS ALL NAUROUZE,True,17363.0,43.60940914995713,1.35331711061118
287,RTE DE BAYONNE,BAYONNE (RTE DE BAYONNE),Toulouse,31555,2017-09-28,2017-01-01,ENTRE CHE CHEVREFEUILLE ET N124,VERS N124,True,2687.0,43.60940914995713,1.35331711061118
288,AV EDOUARD SERRES,SERRES (AV EDOUARD SERRES)__COLOMIERS,Colomiers,31149,2017-09-28,2017-01-01,ENTRE BD DASSAULT ET AV BRUNAUD,VERS AV BRUNAUD,False,8584.0,43.611035004445,1.3520101184733164
289,AV DE TOULOUSE,TOULOUSE (AV DE TOULOUSE),Pibrac,31417,2017-09-25,2017-01-01,ENTRE RN124 ET AV FONVIEILLE,VERS AV FONVIEILLE,False,6352.0,43.61060285692952,1.2845919293870278
290,AV DE RANGUEIL,RANGUEIL (AV DE RANGUEIL),Toulouse,31555,2017-11-06,2017-01-01,ENTRE CHE DES MARAICHERS ET CAMPUS,VERS CHE DES MARAICHERS,False,4520.0,43.57482872182433,1.4565325437103207
291,AV DIDIER DAURAT,DAURAT (AV DIDIER DAURAT),Toulouse,31555,2017-11-08,2017-01-01,ENTRE RUE VEDRINES ET RUE RODIER,VERS RUE VEDRINES,False,5646.0,43.56915202276782,1.4911050878898293
292,RUE JEAN PHILIPPE RAMEAU,RAMEAU (RUE JEAN PHILIPPE RAMEAU),Toulouse,31555,2017-11-16,2017-01-01,ENTRE CHE DU SANG DE SERP ET RUE BESSEMER,VERS CHE DU SANG DE SERP,False,687.0,43.61895636036227,1.4245113129831437
293,CHE DE LA PESCADOURE,PESCADOURE (CHE DE LA PESCADOURE),Toulouse,31555,2017-11-16,2017-01-01,ENTRE CHE SANG DE SERP ET RUE CHAUSSAS,VERS RUE DE CHAUSSAS,False,1080.0,43.61875891343756,1.4276316220971708
294,AV DE GAMEVILLE,GAMEVILLE (AV DE GAMEVILLE),Saint-Orens-De-Gameville,31506,2018-01-30,2018-01-01,ENTRE RUE DES SPORTS ET RUE DU BOUSQUET,VERS RUE DES SPORTS,False,6930.0,43.55370274791891,1.5328990859066691
295,RTE DE BESSIERES,BESSIERES (RTE DE BESSIERES),Union,31561,2017-12-08,2017-01-01,ENTRE RUE DE LA VIOLETTE ET RUE DES ACACIAS,VERS BD DES FONTANELLES,False,7247.0,43.65825806416141,1.470580700724683
296,RUE DES TOURNESOLS,TOURNESOLS (RUE DES TOURNESOLS),Saint-Alban,31467,2017-12-13,2017-01-01,ENTRE RUE CURIE ET IMP BLES D'OR,VERS RUE CURIE,False,46.0,43.69902380501071,1.4096194676474891
297,RUE SAINT LUC,LUC (RUE SAINT LUC),Toulouse,31555,2017-12-04,2017-01-01,ENTRE RUE STE PHILOMENE ET RUE LEO LAGRANGE,VERS ALL DES DEMOISELLES,True,359.0,43.58895126560154,1.4534011079497688
298,CHE DE TOMBEROUSSY,TOMBEROUSSY (CHE DE TOMBEROUSSY),Montrab√∫,31389,2017-12-06,2017-01-01,ENTRE CHE SAINT JEAN ET ALL DE L'AUTAN,VERS CHE DE SAINT JEAN,False,593.0,43.650305104216365,1.5267741821004304
299,AV DE LA COLONNE,COLONNE (AV DE LA COLONNE),Toulouse,31555,2017-12-01,2017-01-01,ENTRE RUE DE L'OBELISQUE ET RUE MARTY,VERS RUE DE L'OBELISQUE,False,1519.0,43.609564481497586,1.4620461211859153
300,RUE JULES VERNE,VERNE (RUE JULES VERNE),Toulouse,31555,2017-11-27,2017-01-01,ENTRE RUE TAILLEN ET BD SILVIO TRENETIN,VERS BD SILVIO TRENTIN,True,4872.0,43.624600000000044,1.4274100000000658
301,RTE DE LEVIGNAC,LEVIGNAC (RTE DE LEVIGNAC),Pibrac,31417,2017-11-29,2017-01-01,ENTRE RTE DE BRAX ET CHE LAS COUMOS,VERS RTE DE BRAX,False,4511.0,43.62964385609222,1.2386495194832448
302,RUE CUVIER,CUVIER (RUE CUVIER),Toulouse,31555,2017-12-15,2017-01-01,ENTRE RUE FAROUETTE ET RUE BOURGELAT,VERS RUE BOURGELAT,True,295.0,43.577541418889034,1.4205560580165135
303,CHE DE LARRIOU,LARRIOU (CHE DE LARRIOU),Pibrac,31417,2018-01-10,2018-01-01,ENTRE RUE PUYMORENS ET AV BALARDOU,VERS AV DE BALARDOU,False,232.0,43.61303919274209,1.2826422559986044
304,RUE PIERRE ET MARIE CURIE,CURIE (RUE PIERRE ET MARIE CURIE),Aucamville,31022,2017-05-01,2017-01-01,ENTRE RUE DES PEUPLIERS ET RUE EFFEIL,VERS RUE EFFEIL,False,1430.0,43.661973027883285,1.4184359142236724
305,RUE THEODORE LENOTRE,LENOTRE (RUE THEODORE LENOTRE),Toulouse,31555,2017-05-05,2017-01-01,ENTRE RUE DES CAPUCINES ET RUE DES PRIMEVER,VERS RUE DE CAPUCINES,False,872.0,43.62360231468554,1.4708536684123628
306,RUE DES BLANCHERS,BLANCHERS (RUE DES BLANCHERS),Toulouse,31555,2017-04-20,2017-01-01,ENTRE RUE LARREY ET  PL SAINT PIERRE,VERS PLACE SAINT PIERRE,True,1413.0,43.60259448958383,1.4374885914263145
307,RUE DES ECOLES,ECOLES (RUE DES ECOLES),Aucamville,31022,2017-04-21,2017-01-01,ENTRE AV DU PARC ET IMP DU TIBIRAN,VERS CHE DES BOURDETTES,False,1720.0,43.670783703600655,1.433109977462179
308,ALL DE NAUROUZE,NAUROUZE (ALL DE NAUROUZE),Colomiers,31149,2017-06-12,2017-01-01,ENTRE RUE DU MINERVOIS ET ALL MONTS D'OLMES,VERS CHE DU PAGE,False,3816.0,43.60919882167748,1.346628306379607
309,RTE DE GAURE,GAURE (RTE DE GAURE),Mons,31355,2017-07-18,2017-01-01,ENTRE RUE SAINTE QUITERIE ET AV DUPERIN,VERS GAURE,False,1118.0,43.61982770134505,1.5806270641860396
310,ALL DES FRERES HIGOUNENG,HIGOUNENG (ALL DES FRERES HIGOUNENG),Tournefeuille,31557,2017-09-14,2017-01-01,ENTRE AV GASCOGNE ET RUE AUVERGNE,VERS RUE AUVERGNE,False,2534.0,43.58896769315858,1.3390593657152476
311,RUE DE PASSERIVE,PASSERIVE (RUE DE PASSERIVE),Tournefeuille,31557,2017-09-14,2017-01-01,ENTRE CHE LARRAMET ET RUE DES GRAVES,VERS RUE DES AULMES,False,877.0,43.56493507116814,1.3356341672728367
312,CHE DU CANAL,CANAL (CHE DU CANAL),Tournefeuille,31557,2017-09-14,2017-01-01,ENTRE RUE DU MEDOC ET RUE DU COUR D'EAU,VERS RUE DU COUR D'EAU,False,1280.0,43.559693134207556,1.351074566895411
313,CHE DU BOIS,BOIS (CHE DU BOIS),Tournefeuille,31557,2017-09-14,2017-01-01,ENTRE CHE BORDENOIRE ET IMP DU BOIS,VERS CHE DU GRILLOU,False,122.0,43.564498730762224,1.3559878351315486
314,PL VICTOR HUGO,HUGO (PL VICTOR HUGO),Toulouse,31555,2017-05-15,2017-01-01,ENTRE RUE SARDANE ET BD DE STRASBOURG,VERS BD DE STRASBOURG,True,2135.0,43.60604615093952,1.446442374410669
315,RUE ROMIGUIERES,ROMIGUIERES (RUE ROMIGUIERES),Toulouse,31555,2017-05-27,2017-01-01,ENTRE RUE MIREPOIX ET RUE DES LOIS,VERS RUE DES LOIS,True,1646.0,43.604762051044,1.4421201142533566
316,RUE LEON GAMBETTA,GAMBETTA (RUE LEON GAMBETTA),Toulouse,31555,2017-05-15,2017-01-01,ENTRE CAPITOLE ET RUE MIREPOIX,VERS RUE MIREPOIX,True,2808.0,43.60319677227634,1.4420748665679508
317,RUE FEDERICO GARCIA LORCA,LORCA (RUE FEDERICO GARCIA LORCA),Toulouse,31555,2017-03-17,2017-01-01,ENTRE AV DE FONDEYRE ET CHE DE FENOUILLET,VERS AV DE FONDEYRE,False,5113.0,43.63437596750448,1.4266881712489738
318,CHE DE SAINT JEAN,JEAN (CHE DE SAINT JEAN),L'union,31561,2017-03-27,2017-01-01,ENTRE IMP BELBEZE ET IMP SAINT JEAN,VERS AV DES PYRENEES,False,3031.0,43.65283139099166,1.4981952415841195
319,RUE DU GARD,GARD (RUE DU GARD),Toulouse,31555,2017-09-19,2017-01-01,ENTRE RUE VESTREPAIN ET RUE LONGCHAMPS,VERS RUE LONGCHAMPS,False,207.0,43.586417926306275,1.4113758604921316
320,RUE EMILE BROUARDEL,BROUARDEL (RUE EMILE BROUARDEL)_TOULOUSE,Toulouse,31555,2016-03-14,2016-01-01,ENTRE LASCROSSES ET FRANKLIN,VERS BD DE LA MARQUETTE,False,410.0,43.60975087257431,1.4256916876370418
321,RUE DE DAKAR,DAKAR (RUE DE DAKAR),Toulouse,31555,2016-02-01,2016-01-01,A SENS UNIQUE,VERS RUE DE DAKAR,True,394.0,43.58635456194629,1.477871122376068
322,RUE BONNAT,BONNAT (RUE BONNAT),Toulouse,31555,2016-03-02,2016-01-01,ENTRE RUE GUICHEN,VERS RUE DE NIMES,False,1067.0,43.5807911224997,1.4583844814832476
323,RTE DE LAUNAGUET,LAUNAGUET (RTE DE LAUNAGUET),L'union,31561,2016-06-16,2016-01-01,ENTRE RTE BESSIERES ET LAUNAGUET,VERS CHE DES SPORT,False,2240.0,43.66574235270487,1.4708377421837875
324,CHE DE MALBOU,MALBOU (CHE DE MALBOU),L'union,31561,2016-05-23,2016-01-01,ENTRE RUE DU GEAI ET RUE DE LA PICHOUNELLE,VERS RTE DE BESSIERES,False,421.0,43.6655516256697,1.4836431147424218
325,CHE DE MOULIS,MOULIS (CHE DE MOULIS)__TOULOUSE,Toulouse,31555,2016-05-24,2016-01-01,ENTRE CHE CROIX BENITE ET BD GAUSSENS,VERS BD GAUSSENS,False,1473.0,43.66527240342014,1.4370576509466333
326,RUE DES ROZIERS,ROZIERS (RUE DES ROZIERS),Toulouse,31555,2016-04-08,2016-01-01,ENTRE RUE BORIOS ET RUE PAUILHAC,VERS RUE PAUILHAC,True,693.0,43.61290618795874,1.4445139361617017
327,CHE DE FENOUILLET,FENOUILLET (CHE DE FENOUILLET),Toulouse,31555,2016-05-09,2016-01-01,ENTRE RU CROIZAT ET RU EARIFAT,VERS RUE LAURENCIN,False,3472.0,43.6452321170677,1.4147616449439406
328,RUE JOLY,JOLY (RUE JOLY),Toulouse,31555,2016-03-24,2016-01-01,ENTRE DUMERIL ET 36 PONTS,SENS UNIQUE VERS 36 PONTS,True,1252.0,43.59143656021622,1.4488956478011554
329,AV DU COLONEL ROCHE,ROCHE (AV DU COLONEL ROCHE),Toulouse,31555,2016-04-04,2016-01-01,ENTRE RANGUEIL ET RD PT CAMBOU,VERS AV DE RANGUEIL,False,4957.0,43.56369761789515,1.4764123081409983
330,AV DE RANGUEIL,RANGUEIL (AV DE RANGUEIL),Toulouse,31555,2016-04-04,2016-01-01,ENTRE CHE DES MARAICHERS ET CAMPUS,VERS CHE DES MARAICERS,False,4027.0,43.57482872182433,1.4565325437103207
331,BD HENRI ZIEGLER,ZIEGLER (BD HENRI ZIEGLER),Blagnac,31069,2016-07-01,2016-01-01,ENTRE BD DE L'EUROPE ET AV D'ANDROMEDE,VERS AV D'ANDROMEDE,False,3119.0,43.65865910952847,1.3655698944436676
332,ALL DES TRICHERIES,TRICHERIES (ALL DES TRICHERIES),Seilh,31541,2016-09-07,2016-01-01,ENTRE CHE ROYE ET IMP DU PEL ROUS,VERS AV RAYMOND,False,867.0,43.68705101600454,1.3623963673694988
333,CHE DE LA SALVETAT,SALVETAT (CHE DE LA SALVETAT),Colomiers,31149,2016-09-12,2016-01-01,ENTRE RPT JUPITER ET CHE DE LA NASQUE,VERS CHE NASQUE,False,11099.0,43.60165006998047,1.300048266036366
334,RD 82,(VA VA000021),Colomiers,31149,2016-09-12,2016-01-01,ENTRE RPT TERRE ET RPT JUPITER,VERS RPT TERRE,False,9033.0,43.59637208320175,1.3588457267761747
335,RUE DOMINIQUE CLOS,CLOS (RUE DOMINIQUE CLOS)__TOULOUSE,Toulouse,31555,2015-02-23,2015-01-01,ENTRE FOURNIER ET ESPEISSIERE,VERS ESPEISSIERE,False,35.0,43.6055904871702,1.3674961020023173
336,CHE DES BOURDETTES,BOURDETTES (CHE DES BOURDETTES),Cugnaux,31157,2015-02-23,2015-01-01,ENTRE RTE TOULOUSE ET CASSAGNERE,VERS TOULOUSE,False,382.0,43.552280033702495,1.3529307707951455
337,CHE DE LA CHASSE,CHASSE (CHE DE LA CHASSE),Colomiers,31149,2015-05-28,2015-01-01,ENTRE CHE DE LA SALVETAT ET AV ALLENDE,VERS LA SALVETAT,False,4953.0,43.60429626020377,1.3133645059962413
338,RTE D ALBI,ALBI (RTE D ALBI),Toulouse,31555,2015-06-10,2015-01-01,ENTRE A62 ET RUE ROSTAND,VERS CENTRE VILLE,False,16409.0,43.64668606956429,1.4702704254498076
339,AV LUCIEN BAROUX,BAROUX (AV LUCIEN BAROUX),Toulouse,31555,2015-06-25,2015-01-01,ENTRE PL ALBERT ET CHE DE LA TERRASSE,VERS CHE DE LA TERRASSE,False,3029.0,43.59181090844211,1.4789426312091287
340,CHE DE MAZAYGUES,MAZAYGUES (CHE DE MAZAYGUES),Toulouse,31555,2015-06-10,2015-01-01,ENTRE CHE RAMELET MOUNDI ET RUE COCTEAU,VERS CHE RAMELET MOUNDI,False,745.0,43.586252487093205,1.3788728789583777
341,IMP DAGUIN,DAGUIN (IMP DAGUIN),Toulouse,31555,2015-03-30,2015-01-01,ENTRE CLOS ET CHE TOURNEFEUILLE,VERS CHE DE TOURNEFEUILLE,False,82.0,43.60372512180018,1.3710724343723408
342,RTE DE SAINTE GERMAINE,GERMAINE (RTE DE SAINTE GERMAINE),Pibrac,31417,2015-03-30,2015-01-01,ENTRE BELARD ET GAYNE,VERS BELARD,False,61.0,43.633460469811126,1.2542483799794477
343,RUE GEORGES VIVENT,VIVENT (RUE GEORGES VIVENT),Toulouse,31555,2015-04-24,2015-01-01,ENTRE ALL SAINT SAENS ET RUE PELLETIER,VERS ALL SAENS,True,400.0,43.57149846794633,1.3938150449296332
344,CHE DES BOURDETTES,BOURDETTES (CHE DES BOURDETTES),Aucamville,31022,2015-04-08,2015-01-01,ENTRE JAURES ET DORTIS,VERS AUCAMVILLE,False,5054.0,43.66886565694666,1.4313695462355924
345,CHE DES COTES DE PECH DAVID,DAVID (CHE DES COTES DE PECH DAVID),Toulouse,31555,2015-11-16,2015-01-01,ENTRE CHE DES CANALETS ET CHE DU VALLON,VERS CHE DES CANALETS,False,3274.0,43.57263294855908,1.443731185232403
346,AV DES NOBLES,NOBLES (AV DES NOBLES),Launaguet,31282,2015-11-17,2015-01-01,ENTRE RTE DE BESSIERES ET IMP ELUARD,VERS RTE DE BESSIERES,False,3344.0,43.6723130024106,1.4518818933085855
347,CHE DES ETROITS,ETROITS (CHE DES ETROITS),Toulouse,31555,2015-11-16,2015-01-01,ENTRE CHE DES CANALETS ET CHE DE RIVALSUPER,VERS TOULOUSE,False,6760.0,43.56336584976836,1.4393304008337038
348,RUE DES JACOBINS,JACOBINS (RUE DES JACOBINS),Toulouse,31555,2015-01-15,2015-01-01,ENTRE MIREPOIX ET LAKANAL,SENS UNIQUE VERS LAKANAL,True,491.0,43.60410489945884,1.4412188952438727
349,RUE JEAN SUAU,SUAU (RUE JEAN SUAU),Toulouse,31555,2015-01-15,2015-01-01,ENTRE GAMBETTA ET DAURADE,SENS UNIQUE VERS DAURADE,True,1646.0,43.602083701415125,1.4406167765214708
350,RUE DES CARROLS,CARROLS (RUE DES CARROLS)_BRUGUIERES,Brugui‚ïöRes,31091,2015-01-15,2015-01-01,ENTRE ROCHEFORT ET BELLEVUE,LES 2 SENS,False,128.0,43.725136166129325,1.4198413432943389
351,CHE DU LOUDET,LOUDET (CHE DU LOUDET),Colomiers,31149,2015-08-31,2015-01-01,ENTRE ALL PUYCASQUIE ET IMP DU LOUDET,VERS BD VICTOR HUGO,False,290.0,43.608927366905576,1.3045359269885315
352,RUE EMILE BARRIERE,BARRIERE (RUE EMILE BARRIERE),Toulouse,31555,2015-09-18,2015-01-01,ENTRE RUE TALLIEN ET RUE FONQUERNE,VERS RUE TALLIEN,False,844.0,43.6267355800623,1.4278355069723152
353,AV D ITALIE,ITALIE (AV D ITALIE),Toulouse,31555,2016-01-11,2016-01-01,ENTRE RUE TARISSAN ET RUE SIZABUIRE,VERS AV DE RANGUEIL,False,2428.0,43.580600269711,1.454782171349057
354,ALL HENRI SELLIER,SELLIER (ALL HENRI SELLIER),Toulouse,31555,2014-01-29,2014-01-01,ENTRE TASSIGNY ET MOUETTES,VERS MOULIN,False,4058.0,43.577197090178316,1.4392880981009974
355,CHE DE MALEPERE,MALEPERE (CHE DE MALEPERE),Toulouse,31555,2014-02-20,2014-01-01,ENTRE CARMES ET LABEGE,VERS RTE REVEL,False,1681.0,43.56486422879535,1.508038265105509
356,RUE NOTRE DAME,DAME (RUE NOTRE DAME),Toulouse,31555,2014-09-15,2014-01-01,,SENS UNIQUE VERS ST MICHEL,True,1921.0,43.58899639441627,1.4477718690713484
357,RUE DU CANON D ARCOLE,ARCOLE (RUE DU CANON D ARCOLE),Toulouse,31555,2014-05-14,2014-01-01,ENTRE MARQUETTE ET PAIX,VERS LASCROSSES,False,1583.0,43.613085539032994,1.4356436664177166
358,PONT DU HALAGE DE TOUNIS,TOUNIS (PONT DU HALAGE DE TOUNIS)_TOULOUSE,Toulouse,31555,2014-05-14,2014-01-01,ENTRE TOUNIS ET ST MICHEL,VERS PT ST MICHEL,True,1986.0,43.59336446086818,1.4407251591612706
359,BD DE LA MARNE,MARNE (BD DE LA MARNE),Toulouse,31555,2014-04-17,2014-01-01,ENTRE CRAMPEL ET FOCH,SENS UNIQUE VERS FOCH,True,5276.0,43.58395693152314,1.461627559021448
360,RUE DE L INDUSTRIE,INDUSTRIE (RUE DE L INDUSTRIE),Toulouse,31555,2014-11-03,2014-01-01,ENTRE PERI ET COLOMBETTE,SENS UNIQUE VERS COLOMBETTE,True,794.0,43.60547923934424,1.4511638002190335
361,AV DE LARDENNE,LARDENNE (AV DE LARDENNE),Toulouse,31555,2014-11-06,2014-01-01,ENTRE MOLETTE ET CATALA,VERS CATALA,False,5770.0,43.5900151683827,1.3665984600411225
362,RUE ALFRED DUMERIL,DUMERIL (RUE ALFRED DUMERIL),Toulouse,31555,2014-10-07,2014-01-01,ENTRE SAINT JOSEPH ET JOLY,SENS UNIQUE VERS JOLY,True,2178.0,43.59219979672302,1.4493839211914643
363,RUE DES GALLOIS,GALLOIS (RUE DES GALLOIS),Toulouse,31555,2014-10-07,2014-01-01,ENTRE GARAUD ET VADIEU,SENS UNIQUE VERS VADIEU,True,2097.0,43.589844960582724,1.4428284883838818
364,RUE DU SACHET,SACHET (RUE DU SACHET),Toulouse,31555,2014-10-07,2014-01-01,ENTRE GUESDE ET DUMERIL,SENS UNIQUE VERS DUMERIL,True,309.0,43.59324931136609,1.4478076908265765
365,AV DU PARC,PARC (AV DU PARC),Blagnac,31069,2014-06-10,2014-01-01,ENTRE NAVARRE ET GONIN,VERS GONIN,False,6156.0,43.630451716732296,1.3883355549137393
366,CHE NEGRIER,NEGRIER (CHE NEGRIER),St-Jean,31488,2014-04-03,2014-01-01,ENTRE CHE VERDALE ET RUE DE GASCOGNE,VERS CHE VERDALE,False,916.0,43.663967782506504,1.4964700415601566
367,CHE DE LA PALANQUE,PALANQUE (CHE DE LA PALANQUE),Launaguet,31282,2014-01-13,2014-01-01,ENTRE VIOLETTE ET SPORTS,VERS CHE DE LA VIOLETTE,False,3467.0,43.66333565817839,1.457814411803012
368,CHE DES SOEURS,SOEURS (CHE DES SOEURS),Blagnac,31069,2014-01-24,2014-01-01,ENTRE 11 NOVEMBRE ET BEAUDELAIRE,VERS RTE GRENADE,False,881.0,43.630979899787654,1.3938333465783235
369,RUE VELASQUEZ,VELASQUEZ (RUE VELASQUEZ),Toulouse,31555,2016-12-12,2016-01-01,ENTRE CHE LAPORTE ET RUE DES LILAS,VERS AV LATECOERE,False,4329.0,43.61333287091324,1.3866391935129436
370,AV DE VILLEMUR,VILLEMUR (AV DE VILLEMUR),Saint-Alban,31467,2016-12-08,2016-01-01,ENTRE RUE COUBERTIN ET RUE BLUM,VERS RUE BLUM,False,5737.0,43.68929924799109,1.4242467268267085
371,IMP DESTARAC,DESTARAC (IMP DESTARAC),Toulouse,31555,2017-01-03,2017-01-01,,LES DEUX SENS,False,422.0,43.54347749976641,1.4460255073674435
372,CHE DU MOULIN DE NAUDIN,NAUDIN (CHE DU MOULIN DE NAUDIN),Blagnac,31069,2017-03-09,2017-01-01,ENTRE RTE DE GRENADE ET VIEUX CHE DE GRENAD,VERS VIEUX CHE DE GRENADE,False,641.0,43.65324520582703,1.389753191540612
373,RUE DU CHATEAU D EAU,EAU (RUE DU CHATEAU D EAU),Colomiers,31149,2017-03-09,2017-01-01,ENTRE CHE DES CARRIERES ET RUE DU FORT,VERS CHE DES MILLASSIS,False,882.0,43.61580114754242,1.3349902823217548
374,RTE DE CORNEBARRIEU,CORNEBARRIEU (RTE DE CORNEBARRIEU),Colomiers,31149,2017-03-01,2017-01-01,ENTRE ALL DE LANGRES ET ALL DE GARROUSSAL,VERS BD SELERY,False,8462.0,43.621243402909876,1.3350450699167695
375,AV DES PYRENEES,PYRENEES (AV DES PYRENEES),Mons,31355,2017-03-01,2017-01-01,ENTRE RUE CANTALAUZE ET RUE DU CHATEAU,VERS AV DU LAURAGAIS,False,945.0,43.61243583866462,1.5710451975404525
376,AV LATECOERE,LATECOERE (AV LATECOERE),Cornebarrieu,31150,2017-02-28,2017-01-01,ENTRE AV MONNET ET CHE DE LA SABATERE,VERS AV MONNET,False,4655.0,43.63951005676738,1.344600096971078
377,RTE DE BRUGUIERES,BRUGUIERES (RTE DE BRUGUIERES),Castelginest,31116,2017-02-20,2017-01-01,ENTRE CHEBELBOSC ET CHE BARTHOLE,VERS RUE RAYSSAC,False,2084.0,43.70664795714523,1.4224831878503217
378,RUE DU PRINTEMPS,PRINTEMPS (RUE DU PRINTEMPS)_TOULOUSE,Toulouse,31555,2018-03-19,2018-01-01,ENTRE RUE INGRE ET RUE ST HILAIRE,VERS RUE ST HILAIRE,True,1732.0,43.614093088668895,1.4446870746466949
379,RUE DE BELFORT,BELFORT (RUE DE BELFORT),Toulouse,31555,2018-04-03,2018-01-01,ENTRE ALL JAURES ET RUE COROT,VERS PL BELFORT,True,362.0,43.609002768924626,1.4491508337176533
380,BD DE L EUROPE,EUROPE (BD DE L EUROPE),Colomiers,31149,2018-04-05,2018-01-01,ENTRE BD SEVERAC ET AV SAINT GRANIER,VERS BD SEVERAC,False,7749.0,43.597933331226635,1.3616943104415116
381,RUE RAYMOND IV,RAYMOND IV (RUE RAYMOND IV)_TOULOUSE,Toulouse,31555,2018-03-19,2018-01-01,ENTRE RUE AGATOISE ET RUE CHEVREUL,VERS RUE CHEVREUL,True,4014.0,43.61097296987223,1.4492159463941376
382,RUE DE LA CHAUSSEE,CHAUSSEE (RUE DE LA CHAUSSEE),Toulouse,31555,2018-03-19,2018-01-01,ENTRE AV HAURIOU ET BD JUIN,VERS AV MAURICE HAURIOU,False,3604.0,43.59269010901327,1.4424142340441264
383,RUE NINAU,NINAU (RUE NINAU),Toulouse,31555,2018-05-28,2018-01-01,ENTRE PL MONTOULIEU ET RUE STE SCARBES,VERS PL STE SCARBES,True,1236.0,43.59761005435027,1.4495950850889017
384,RUE DU GENERAL BOURBAKI,BOURBAKI (RUE DU GENERAL BOURBAKI),Toulouse,31555,2018-06-04,2018-01-01,ENTRE RUE FILHOL ET RUE FIGEAC,VERS RUE FILHOL,False,639.0,43.621399359357184,1.4337131152202198
385,RUE DU 11 NOVEMBRE 1918,NOVEMBRE (RUE DU 11 NOVEMBRE 1918),Cornebarrieu,31150,2018-03-07,2018-01-01,ENTRE RTE DU STADE ET RUE SAINT JEAN,VERS RTE DU STADE,False,3322.0,43.64938867924197,1.321337303034557
386,CHE DE LA VIOLETTE,VIOLETTE (CHE DE LA VIOLETTE),Union,31561,2018-03-05,2018-01-01,ENTRE RTE DE BESSIERES ET IMP DE LA VIOLETT,VERS RTE DE BESSIERES,False,5320.0,43.66338782386823,1.463572871462224
387,CHE DE LA VIOLETTE,VIOLETTE (CHE DE LA VIOLETTE),Union,31561,2018-03-06,2018-01-01,ENTRE CHE PALANQUE ET RUE BORDEBASSE,VERS RTE DE BESSIERES,False,5587.0,43.66338782386823,1.463572871462224
388,BD MAURICE GRYNFOGEL,GRYNFOGEL (BD MAURICE GRYNFOGEL),Colomiers,31149,2018-03-07,2018-01-01,ENTRE CHE GRAMONT ET ALL PRADINE,VERS GIR DE VINCI,False,9533.0,43.617689510357536,1.3394084861460684
389,RUE LOUIS PLANA,PLANA (RUE LOUIS PLANA)_TOULOUSE,Toulouse,31555,2008-09-26,2018-01-01,ENTRE DINETARD ET JUNCASSE,VERS AV DE L'HERS,False,3987.0,43.61009370704622,1.4793010756879603
390,AV DE REYNERIE,REYNERIE (AV DE REYNERIE),Toulouse,31555,2018-11-08,2018-01-01,ENTRE RUE GERVAIS ET RUE LIZOPE,VERS AV CHURCHILL,False,5265.0,43.571574496167536,1.408423042902448
391,RUE JACQUES BABINET,BABINET (RUE JACQUES BABINET),Toulouse,31555,2018-11-08,2018-01-01,ENTRE AV DE REYNERIE ET RUE BAUDOT (OUEST),VERS RUE BAUDOT,False,494.0,43.57088637720472,1.4093056303609186
392,RUE ARISTIDE MAILLOL,MAILLOL (RUE ARISTIDE MAILLOL),Toulouse,31555,2018-11-08,2018-01-01,ENTRE AV TABAR ET CHE BUHL,VERS RUE MAILLOL,False,1244.0,43.57652608957754,1.395434229971051
393,RUE LAFAGE,LAFAGE (RUE LAFAGE),Toulouse,31555,2018-10-15,2018-01-01,ENTRE RUE DUMEGE ET RUE BOUTHOUMIEUX,VERS RUE BOUTHOUMIEUX,True,668.0,43.584822276025996,1.4265613293815462
394,CHE D ULIET,ULIET (CHE D ULIET),Cornebarrieu,31150,2018-12-15,2018-01-01,ENTRE RTE DE SEILH ET RN 224,VERS RN 224,False,1481.0,43.65945322941942,1.3476244257345178
395,ALL DES MURIERS,MURIERS (ALL DES MURIERS),Blagnac,31069,2018-12-15,2018-01-01,ENTRE AV DU PARC ET RUE KESSEL,VERS RUE KESSEL,False,1898.0,43.636749096993576,1.3896967491619363
396,RTE DE GRENADE,GRENADE (RTE DE GRENADE),Blagnac,31069,2018-05-02,2018-01-01,ENTRE RUE DU TOUCH ET RUE RAYMONDIS,VERS AV SERVENTY,True,4018.0,43.65277769535732,1.379882360381283
397,RUE DES CEDRES,CEDRES (RUE DES CEDRES),Tournefeuille,31557,2018-05-15,2018-01-01,ENTRE AV LECLERC ET RUE DES OLIVIERS,VERS RUE DES OLIVIERS,False,162.0,43.57562155488675,1.326736321092066
398,RUE LABAT DE SAVIGNAC,SAVIGNAC (RUE LABAT DE SAVIGNAC),Toulouse,31555,2018-02-13,2018-01-01,ENTRE RUE ABOOUKIR ET RUE DESIRE,VERS AV DE LA GLOIRE,False,448.0,43.60477373438047,1.4653710591471851
399,RUE MARC ARCIS,ARCIS (RUE MARC ARCIS),Toulouse,31555,2018-09-18,2018-01-01,ENTRE AV ESTEBE ET AV DES MINIMES,VERS AV DES MINIMES,True,1758.0,43.62353806542224,1.435636517924062
400,RUE CLAIRE CAZELLES,CAZELLES (RUE CLAIRE CAZELLES),Toulouse,31555,2018-09-18,2018-01-01,ENTRE AV DES MINIMES ET RUE BOURBAKI,VERS AV DES MINIMES,False,237.0,43.62191503803335,1.4341751073646236
401,RUE BIOT,BIOT (RUE BIOT),Toulouse,31555,2018-09-18,2018-01-01,ENTRE RUE BOURBAKI ET RUE MUSSET,VERS RUE DE MUSSET,False,1720.0,43.6220450413516,1.4317651006541041
402,RUE JULES VERNE,VERNE (RUE JULES VERNE),Toulouse,31555,2014-12-03,2014-01-01,ENTRE FONQUERNE ET NICOT,SENSUNIQUE VERS SILVIO TRENTIN,True,4997.0,43.624600000000044,1.4274100000000658
403,RUE JOSEPH LAKANAL,LAKANAL (RUE JOSEPH LAKANAL),Toulouse,31555,2015-01-15,2015-01-01,ENTRE PARGAMINIERES ET JACOBINS,VERS PARGAMIGNIERES,False,208.0,43.60362213579167,1.440787493447441
404,RUE RIVALS,RIVALS (RUE RIVALS),Toulouse,31555,2018-03-06,2018-01-01,ENTRE RUIE REMUSAT ET RUE ALSACE LORRAINE,VERS RUE ALSACE LORRAINE,True,790.0,43.606104687161476,1.4454057971826477
405,RTE DE TOULOUSE,TOULOUSE (RTE DE TOULOUSE),Cornebarrieu,31150,2018-03-07,2018-01-01,ENTRE AV LATECOERE ET RUE DU CASSE,VERS RUE DU CASSE,False,12412.0,43.651207638875874,1.3392179022291504
406,RTE DE BOUCONNE,BOUCONNE (RTE DE BOUCONNE),Cornebarrieu,31150,2018-03-07,2018-01-01,ENTRE CHE DE GUYENNE ET IMP PEUPLIERS,IMP DES PEUPLIERS,False,2540.0,43.64868577580404,1.2968818475904729
407,RUE LOUIS BLERIOT,BLERIOT (RUE LOUIS BLERIOT),Blagnac,31069,2018-03-08,2018-01-01,ENTRE RUE FLAUBERT ET RUE SAND,VERS RUE FLAUBERT,False,1157.0,43.652321128493426,1.3654600555847765
408,AV D ANDROMEDE,ANDROMEDE (AV D ANDROMEDE),Blagnac,31069,2018-03-14,2018-01-01,ENTRE RUE GRAY ET BD EUROPE,VERS BD DE L'EUROPE,False,3639.0,43.655401631641375,1.367484383734648
409,AV DE TOULOUSE,TOULOUSE (AV DE TOULOUSE),Pibrac,31417,2018-03-14,2018-01-01,ENTRE AV BALARDOU ET CHE LARRIOU,VERS AV DE BALARDOU,False,2650.0,43.61060285692952,1.2845919293870278
410,RUE DE LA CHAUSSEE,CHAUSSEE (RUE DE LA CHAUSSEE),Toulouse,31555,2018-03-19,2018-01-01,ENTRE AV HAURIOU ET BD JUIN,VERS BD MARECHAL JUIN,False,9729.0,43.59269010901327,1.4424142340441264
411,RUE DE NINARET,NINARET (RUE DE NINARET),Saint-Orens-De-Gameville,31506,2018-03-29,2018-01-01,ENTRE RUE DES TOURNESOLS,VERS RUE LABOUILHE,False,113.0,43.55271004305814,1.5457922549325391
412,CHE DU PRADEL,PRADEL (CHE DU PRADEL),Saint-Jory,31490,2018-04-01,2018-01-01,ENTRE CHE TRUGUETTES ET RUE TOSCANE,VERS LE CANAL,False,229.0,43.740153871248886,1.3548765504905342
413,CHE DU PRADEL,PRADEL (CHE DU PRADEL),Saint-Jory,31490,2018-04-01,2018-01-01,ENTRE CHE TRUGUETTES ET RUE TOSCANE,VERS CHE DES TRUGUETTES,False,219.0,43.740153871248886,1.3548765504905342
414,RUE DE STALINGRAD,STALINGRAD (RUE DE STALINGRAD),Toulouse,31555,2018-04-03,2018-01-01,ENTRE RUE DE BORN ET RUE MAYNARD,VERS RUE CARRARELLI,True,3085.0,43.60931973251363,1.4515528632994643
415,RUE DE L AUSSONNELLE,AUSSONNELLE (RUE DE L AUSSONNELLE),Cornebarrieu,31150,2018-04-05,2018-01-01,ENTRE RUE PASTEUR ET RUE DE LA POSTE,VERS RUE DE LA POSTE,False,1211.0,43.65216771798918,1.3286066221754897
416,CHE DE BARRIEU,BARRIEU (CHE DE BARRIEU),Blagnac,31069,2018-04-05,2018-01-01,ENTRE RUE VIRGILE ET RUE PERVENCHES,VERS RUE MALRAUX,False,750.0,43.641090478543724,1.3956069759076657
417,CHE DE BORDEBLANQUE,BORDEBLANQUE (CHE DE BORDEBLANQUE),Colomiers,31149,2018-05-06,2018-01-01,ENTRE CHE NASQUE ET BD PAUL,VERS BD PAUL,False,1595.0,43.59848755158468,1.3104956711793105
418,RTE DE LACOURTENSOURT,LACOURTENSOURT (RTE DE LACOURTENSOURT),Fenouillet,31182,2018-05-11,2018-01-01,ENTRE RTE DE PARIS ET VOIES SNCF (SUD),VERS RTE DE PARIS,False,831.0,43.667567845804925,1.408615815696726
419,RUE DE NEGRENEYS,NEGRENEYS (RUE DE NEGRENEYS),Toulouse,31555,2018-06-04,2018-01-01,ENTRE RUE FAUVETTE ET RUE DES  ANGES,VERS RUE DES ANGES,True,3667.0,43.621983869648496,1.4419654790218388
420,RUE DE LA VOIE ROMAINE,ROMAINE (RUE DE LA VOIE ROMAINE),Gagnac-Sur-Garonne,31205,2018-06-14,2018-01-01,ENTRE RD 63 ET RUE TURRET,VERS D63,False,2598.0,43.70273872357708,1.3782269594637158
421,BD LASCROSSES,LASCROSSES (BD LASCROSSES),Toulouse,31555,2018-06-15,2018-01-01,ENTRE AV SEJOURNE ET RUE DE RODE,VERS RUE DE SEBASTOPOL,False,5995.0,43.611143485133475,1.4377593275049754
422,RUE JOSEPH THILLET,THILLET (RUE JOSEPH THILLET),Toulouse,31555,2018-06-26,2018-01-01,ENTRE RUE PANEBOEUF ET RUE ACTION TOULOUSAI,VERS RUE VITET,False,679.0,43.59356277814194,1.4603863835822177
423,ALL DE LA CHAMPAGNE,CHAMPAGNE (ALL DE LA CHAMPAGNE),Colomiers,31149,2018-06-27,2018-01-01,ENTRE ALL DES ARDENNES,VERS ALL DE LA MOSELLE,False,875.0,43.618977084654716,1.3280559968492347
424,CHE DE PEYRELONG,PEYRELONG (CHE DE PEYRELONG),Aussonne,31032,2018-06-27,2018-01-01,ENTRE CHE DE LAGASSINE ET RUE NOUGAR,VERS CHE LAGASSINE,False,776.0,43.689876029752085,1.325692331675809
425,RTE DE BESSIERES,BESSIERES (RTE DE BESSIERES),Launaguet,31282,2018-09-10,2018-01-01,ENTRE AV DES NOBLES ET IMP SAUDRUNE,VERS AV DES NOBLES,False,7521.0,43.67110949768009,1.4456495261582918
426,RUE DE TUNIS,TUNIS (RUE DE TUNIS),Toulouse,31555,2018-09-18,2018-01-01,ENTRE RUE JEUNESSE ETRUE  NEGRENEYS,VERS RUE NEGRENEYS,False,1770.0,43.61956980975761,1.443668681257212
427,RUE CAMBARD,CAMBARD (RUE CAMBARD),Toulouse,31555,2018-09-25,2018-01-01,ENTRE RUE FEUILLET ET RUE CAILLEVET,VERS AV D'ATLANTA,False,4112.0,43.628815523001855,1.4752583517036473
428,RUE D ARLES,ARLES (RUE D ARLES),Toulouse,31555,2018-09-28,2018-01-01,ENTRE RUE BEAUCAIRE ET RUE D'HYERES,VERS RUE ROUBICHOU,False,331.0,43.62759083318102,1.466423898626416
429,CHE MICHOUN,MICHOUN (CHE MICHOUN),Toulouse,31555,2018-09-28,2018-01-01,ENTRE RUED'HYERES ET RUE DE LA CIOTAT,VERS CHE NICOL,False,3737.0,43.62799994767699,1.4705559450884151
430,CHE DES ARGOULETS,ARGOULETS (CHE DES ARGOULETS)_TOULOUSE,Toulouse,31555,2018-09-26,2018-01-01,ENTRE RUE LESGOUST ET CHE CASSAING,VERS CHE CASSAING,False,2091.0,43.620689438005876,1.4734473996201085
431,AV HENRI GUILLAUMET,GUILLAUMET (AV HENRI GUILLAUMET),Toulouse,31555,2018-09-26,2018-01-01,ENTRE RUE PLANA ET RUE SAY,VERS BD DES CRETES,False,1301.0,43.61394442432956,1.467435054696799
432,RTE DE SEYSSES,SEYSSES (RTE DE SEYSSES)_TOULOUSE,Toulouse,31555,2017-09-25,2017-01-01,ENTRE CHE LESTANG ET CHE VOUET,VERS CHE DE LESTANG,False,4466.0,43.54417016675966,1.383765231112255
433,RUE DE LA MONTJOIE,MONTJOIE (RUE DE LA MONTJOIE)__TOURNEFEUILLE,Tournefeuille,31557,2017-09-25,2017-01-01,ENTRE RUE MERMOZ ET BD AURIOL,VERS RUE CLEMENT ADER,False,3751.0,43.5905457077546,1.347068546231182
434,AV DU PR JOSEPH DUCUING,DUCUING (AV DU PR JOSEPH DUCUING),Toulouse,31555,2017-09-28,2017-01-01,ENTRE RTE DE NARBONNE ET CHE DE LA SALADE P,VERS RTEDE NARBONNE,False,7151.0,43.561986382919216,1.4590696023321488
435,CHE DE POUVOURVILLE,POUVOURVILLE (CHE DE POUVOURVILLE),Toulouse,31555,2017-09-28,2017-01-01,ENTRE CHE DU VALLON ET CHE DE LA BOURDETTE,VERS CHE DE LA BOURDETTE,False,4029.0,43.55178718443009,1.4572338436351466
436,RUE DE CAULET,CAULET (RUE DE CAULET),Toulouse,31555,2017-09-28,2017-01-01,ENTRE GIR ESCOLA ET RUE TERCE,VERS RUE TERCE,False,3460.0,43.60628003613836,1.3566686597780566
437,CHE DE MALEPERE,MALEPERE (CHE DE MALEPERE),Toulouse,31555,2017-11-06,2017-01-01,ENTRE CHE DES CARMES ET RTE LABEGE,VERS RTE DE REVEL,False,2769.0,43.56486422879535,1.508038265105509
438,AV DU COLONEL ROCHE,ROCHE (AV DU COLONEL ROCHE),Toulouse,31555,2017-11-06,2017-01-01,ENTRE RANGUEIL ET RD PT CAMBOU,VERS AV DE RANGUEIL,False,6184.0,43.56369761789515,1.4764123081409983
439,AV DES HERBETTES,HERBETTES (AV DES HERBETTES),Toulouse,31555,2017-11-08,2017-01-01,ENTRE AV DE LESPINET ET CHE DE LA BUTTE,VERS CHE DE LA BUTTE,False,3852.0,43.578369769453026,1.4717964659266063
440,BD ANDRE NETWILLER,NETWILLER (BD ANDRE NETWILLER),Toulouse,31555,2017-11-23,2017-01-01,ENTRE RUE PASTRE ET BD ARTHAUD,VERS BD ARTHAUD,False,6792.0,43.64281381115374,1.4643750374162428
441,AV DES ETATS UNIS,UNIS (AV DES ETATS UNIS),Toulouse,31555,2017-11-27,2017-01-01,ENTRE RUE LARADE ET RUE MATHALY,VERS RUE CHARLAS,False,5320.0,43.63411109847785,1.4312137227906025
442,CHE DE TUCAUT,TUCAUT (CHE DE TUCAUT),Toulouse,31555,2017-11-30,2017-01-01,ENTRE RUE WEIL ET IMP TUCAUT,VERS CHE BASSO CAMBO,False,6805.0,43.556337161777996,1.370686355607074
443,RUE FRANCOISE,FRANCOISE (RUE FRANCOISE),Aucamville,31022,2017-12-04,2017-01-01,ENTRE IMP DU LAC ET IMP DE LESPINASSE,VERS CHE GRATIAN,False,1386.0,43.67222654739012,1.4135065836761873
444,RTE DE LAUNAGUET,LAUNAGUET (RTE DE LAUNAGUET),Toulouse,31555,2017-12-07,2017-01-01,ENTRE RUE IBOS ET RUE VAN DICK,VERS AV JEAN ZAY,False,8906.0,43.630451108271124,1.437947293293763
445,BD ANDRE NETWILLER,NETWILLER (BD ANDRE NETWILLER),Toulouse,31555,2017-12-07,2017-01-01,ENTRE AV MAUNOURY ET RUE PASTRE,VERS BD ARTHAUD,False,5172.0,43.64281381115374,1.4643750374162428
446,AV DE FRONTON,FRONTON (AV DE FRONTON),Toulouse,31555,2017-12-13,2017-01-01,ENTRE CHE DU BARON ET RUE DUCLOS,VERS CHE DU BARON,False,5004.0,43.63671831323792,1.4333090789595917
447,RUE DES PRETRES,PRETRES (RUE DES PRETRES),Toulouse,31555,2017-12-15,2017-01-01,ENTRE RUE SAINT REMESY ET RPL DES CARMES,VERS PL DES CARMES,True,2448.0,43.59717362049056,1.4438654282166843
448,RUE DES POLINAIRES,POLINAIRES (RUE DES POLINAIRES),Toulouse,31555,2017-12-15,2017-01-01,ENTRE RUE DES FILATIERS ET RUE SAINT REMESY,VERS RUE DES PARADOUX,True,1866.0,43.59788091514956,1.4436741182718282
449,AV DES MAROTS,MAROTS (AV DES MAROTS),Colomiers,31149,2018-01-10,2018-01-01,ENTRE CHE PAHIN ET ALL LAVANDIN,VERS CHE PAHIN,False,1427.0,43.60048528117139,1.3234062275123804
450,BD PAUL VALERY,VALERY (BD PAUL VALERY),Colomiers,31149,2018-01-10,2018-01-01,ENTRE CHE PUJOUANE ET ALL CAPOUL,VERS CHE PUJOUANE,False,222.0,43.59680568715491,1.3452659867540977
451,RUE DE LALANDE,LALANDE (RUE DE LALANDE),Saint-Orens-De-Gameville,31506,2018-01-30,2018-01-01,ENTRE AV AMETHYSTES ET AV CORAIL,VERS RTE DE LABEGE,False,4943.0,43.55159193800305,1.5223769968201006
452,RTE DE LAUNAGUET,LAUNAGUET (RTE DE LAUNAGUET),Toulouse,31555,2017-03-17,2017-01-01,ENTRE RUE RIMBAUD ET CHE AUDIBERT,VERS RUE RIMBAUD,False,8214.0,43.630451108271124,1.437947293293763
453,AV DE FRONTON,FRONTON (AV DE FRONTON),Toulouse,31555,2017-03-17,2017-01-01,ENTRE RUE MIGUET ETIMP DE LA GARE,VERS CHE DU SEMINAIRE,False,4898.0,43.63671831323792,1.4333090789595917
454,RUE FEDERICO GARCIA LORCA,LORCA (RUE FEDERICO GARCIA LORCA),Toulouse,31555,2017-03-17,2017-01-01,ENTRE AV DE FONDEYRE ET CHE DE FENOUILLET,VERS CHE DE FENOUILLET,False,5159.0,43.63437596750448,1.4266881712489738
455,RUE ANDRE ETCHEVERLEPO,ETCHEVERLEPO (RUE ANDRE ETCHEVERLEPO),Toulouse,31555,2017-03-20,2017-01-01,ENTRE RUE EBELOT ET CHE PUJIBET,VERS RUE EBELOT,False,664.0,43.64002394349569,1.4565231909761642
456,RUE DE CUGNAUX,CUGNAUX (RUE DE CUGNAUX),Toulouse,31555,2017-03-21,2017-01-01,ENTRE RUE DE VARSOVIE ET RUE PINS,VERS PL MALE,False,5102.0,43.59354894163771,1.4252612745276636
457,CHE DE LA PLANETTE,PLANETTE (CHE DE LA PLANETTE),Aussonne,31032,2017-04-19,2017-01-01,ENTRE CHE DU PARC ET IMP DES IRIS,VERS CHE DU PARC,False,978.0,43.669764480500056,1.3384252721803542
458,RUE DE LA TEURALIE,TEURALIE (RUE DE LA TEURALIE),Castelginest,31116,2017-04-19,2017-01-01,ENTRE RTE FONBEAUZARD ET RTE PECHBONNIEU,VERSRTE DE PECHBONNIEU,False,2575.0,55.60056000000003,26.43324615800003
459,RUE FIEUX,FIEUX (RUE FIEUX),Toulouse,31555,2017-04-20,2017-01-01,ENTRE RUE BENECH ET RUE DE LA REGINE,VERS RUE DESBALS,False,483.0,43.58269769161411,1.4202472755552267
460,CHE DE PARC,PARC (CHE DE PARC),Pibrac,31417,2017-04-21,2017-01-01,ENTR RUE DES FRERES ET CHE BAUDE,VERS RUE BAUDE,False,1352.0,43.61928395184179,1.293913581092913
461,RUE MERLY,MERLY (RUE MERLY),Toulouse,31555,2017-05-15,2017-01-01,ENTRE BD D'ARCOLE ET RUE POUZONVILLE,VERS POUZONVILLE,True,2921.0,43.6098155135904,1.4425719031087338
462,BD ARMAND DUPORTAL,DUPORTAL (BD ARMAND DUPORTAL),Toulouse,31555,2017-05-15,2017-01-01,ENTRE RUE DE LA CITE ET AL DE BARCELONE,VERS ALL BARCELONE,True,4056.0,43.60709052250165,1.4347563482351622
463,RUE PARGAMINIERES,PARGAMINIERES (RUE PARGAMINIERES),Toulouse,31555,2017-05-15,2017-01-01,ENTRE RUE BASTIDE ET RUE LAKANAL,VERS RUE LAKANAL,True,2203.0,43.60430939904707,1.4379410053509378
464,RUE DU LUAN,LUAN (RUE DU LUAN),Balma,31044,2017-05-30,2017-01-01,ENTRE AV GIMONT ET RUE BULLIARD,VERS AV PRAT GIMONT,False,874.0,43.626438740877155,1.4903294483079579
465,CHE DE LA GRAVIERE,GRAVIERE (CHE DE LA GRAVIERE),Lespinasse,31293,2017-06-12,2017-01-01,ENTRE RTE DE L'HERS ET RUE DES LACS,VERS RUE DES LACS,False,759.0,43.713491814906504,1.390531912135949
466,RTE DE LAVAUR,LAVAUR (RTE DE LAVAUR),Balma,31044,2017-06-12,2017-01-01,ENTRE RTE DE GAURE ET AV DE THEGRA,VERS TOULOUSE,False,12598.0,43.63647760015557,1.4974033755575358
467,ALL MADY DE LA GIRAUDIERE,GIRAUDIERE (ALL MADY DE LA GIRAUDIERE),Colomiers,31149,2017-06-13,2017-01-01,ENTRE PAS RAVEL ET ALL DE NAVARRE,VERS PAS RAVEL,True,133.0,43.59990055475067,1.3486309556230744
468,CHE DE MALEPERE,MALEPERE (CHE DE MALEPERE),Toulouse,31555,2017-09-07,2017-01-01,ENTRE CARMES ET LABEGE,VERS RTE DE LABEGE,False,1712.0,43.56486422879535,1.508038265105509
469,RUE HENRI EBELOT,EBELOT (RUE HENRI EBELOT),Toulouse,31555,2017-09-12,2017-01-01,ENTRE CHE PUJIBET ET RUE ETCHEVERLEPO,VERS RUE ETCHEVERLEPO,False,1130.0,43.64048632109083,1.4600992140413478
470,RUE DU BOSC,BOSC (RUE DU BOSC),Fenouillet,31182,2017-09-12,2017-01-01,ENTRE AV DES SPORTS ET RUE DE GASCOGNE,VERS RUE DE GASCOGNE,False,515.0,43.678535282931456,1.4020124274473962
471,RUE HENRI EBELOT,EBELOT (RUE HENRI EBELOT),Toulouse,31555,2017-09-12,2017-01-01,ENTRE CHE PUJIBET ET RUE ETCHEVERLEPO,VERS CHE PUJIBET,False,1418.0,43.64048632109083,1.4600992140413478
472,CHE DU GRILLOU,GRILLOU (CHE DU GRILLOU),Tournefeuille,31557,2017-09-14,2017-01-01,ENTRE CHE LARRAMET ET CHE DU BOIS,VERS CHE LARRAMET,False,544.0,43.56754907303135,1.360710099662961
473,RUE ESCOUS. MONTGAILLARD,MONTGAILLARD (RUE ESCOUS. MONTGAILLARD),Toulouse,31555,2017-09-15,2017-01-01,ENTRE RUE ESPINASSE ET RUE VELANE,VERS PL MONTOULIEU,True,616.0,31.664435000000026,-82.02624999999995
474,RUE FIEUX,FIEUX (RUE FIEUX),Toulouse,31555,2017-09-19,2017-01-01,ENTRE AV DE MURET ET RUE CAHUZAC,VERS RUE CAHUZAC,True,1132.0,43.58269769161411,1.4202472755552267
475,RUE DES FONTAINES,FONTAINES (RUE DES FONTAINES),Toulouse,31555,2017-09-19,2017-01-01,ENTRE RUE ANTIPOUL ET RUE LABRUYERE,VERS RUE LABRUYERE,True,3694.0,43.6013100434952,1.4176600876666858
476,RUE RODOLOSE,RODOLOSE (RUE RODOLOSE),Toulouse,31555,2017-09-19,2017-01-01,ENTRE RUE PIBRAC ET RUE DES BRAVES,VERS RUE PIBRAC,False,475.0,43.600180615532,1.4171086775088297
477,AV ETIENNE BILLIERES,BILLIERES (AV ETIENNE BILLIERES),Toulouse,31555,2016-09-21,2016-01-01,ENTRE RU DU TCHAD ET RUE DE GASCOGNE,VERS PATTE D'OIE,False,9036.0,43.59689771085965,1.4253000606830142
478,COTE DE CORNAUDRIC,CORNAUDRIC (COTE DE CORNAUDRIC),Union,31561,2016-09-28,2016-01-01,ENTRE RTE DE BESSIERES ET SAULES,VERS RTE DE BRUGUIERES,False,179.0,43.66101600251906,1.4738595812280229
479,AV DES HERBETTES,HERBETTES (AV DES HERBETTES),Toulouse,31555,2016-11-12,2016-01-01,ENTRE CHE DE LA BUTTE ET AV DE LESPINET,VERS CHE DE LA BUTTE,False,3252.0,43.578369769453026,1.4717964659266063
480,AV DE LESPINET,LESPINET (AV DE LESPINET),Toulouse,31555,2016-11-12,2016-01-01,ENTRE RUE TERECHKOVA ET RUE AURIOL,VERS CHE CARROSSE,False,6439.0,43.58272728498203,1.4642976844157187
481,AV DE RANGUEIL,RANGUEIL (AV DE RANGUEIL),Toulouse,31555,2016-11-14,2016-01-01,ENTRE CHE DES MARAICHERS ET CAMPUS,VERS AV ROCHE,False,3224.0,43.57482872182433,1.4565325437103207
482,CHE D AL NOBLE,NOBLE (CHE D AL NOBLE),Colomiers,31149,2016-11-25,2016-01-01,ENTRE ALL DU PERTHUS ET VOIE LATERALE SUD,VERS CHE DU PAGE,False,1592.0,43.604282397432975,1.3464206677420587
483,MAIL LOUIS ARAGON,ARAGON (MAIL LOUIS ARAGON),Blagnac,31069,2016-11-25,2016-01-01,ENTRE IMP BARJAVAL ET RUE MARTIN,VERS RUE MARTIN,False,2467.0,43.6441362964342,1.3791212880179176
484,RUE DES CYCLAMENS,CYCLAMENS (RUE DES CYCLAMENS),Toulouse,31555,2016-11-26,2016-01-01,ENTRE RUE DES MAGNOLIAS,VERS RUE LEUCATE,False,411.0,43.60060028635565,1.47997674071337
485,AV PIERRE GEORGES LATECOERE,LATECOERE (AV PIERRE GEORGES LATECOERE),Blagnac,31069,2016-12-12,2016-01-01,ENTRE RUE RAYMONDIS ET RUE TOUCH,VERS RTE DE GRENADE,True,7347.0,43.62206700488254,1.3927628759591426
486,RUE SIMONE SIGNORET,SIGNORET (RUE SIMONE SIGNORET),Toulouse,31555,2017-01-16,2017-01-01,ENTRE IMP GUILHERMY ET RUE DEBAUGES,VERS RUE DEBAUGES,False,234.0,43.564403794524296,1.3656764964518862
487,AV DU BOIS,BOIS (AV DU BOIS),Saint-Jean,31488,2017-01-30,2017-01-01,ENTRE AV DE L'EGLISE ET RUE DU MUGUET,VERS RUE DU MUGUET,False,3578.0,43.668669059394375,1.5036978650624815
488,RUE DE L INVENTION,INVENTION (RUE DE L INVENTION),Toulouse,31555,2017-03-08,2017-01-01,ENTRE RUE DE L'ILIADE ET AV IMPERIALE,VERS RUE DE L'ILIADE,False,124.0,43.59635661626013,1.490344553427832
489,CHE DES SEPT DENIERS,DENIERS (CHE DES SEPT DENIERS),Toulouse,31555,2017-03-17,2017-01-01,ENTRE CHE ROQUES ET RUE DES TROENES,VERS CHE ROQUES,False,2963.0,43.6210565082109,1.4117520531960575
490,RUE LOUIS PLANA,PLANA (RUE LOUIS PLANA)_TOULOUSE,Toulouse,31555,2008-09-26,2018-01-01,ENTRE DINETARD ET JUNCASSE,VERS AV GUILLAUMET,False,4826.0,43.61009370704622,1.4793010756879603
491,AV DE FLOURENS,FLOURENS (AV DE FLOURENS),Balma,31044,2018-10-10,2018-01-01,ENTRE RUE VAN GOGH ET IMP MOURY,VERS AV MAURESSAC,False,2730.0,43.59861065011214,1.5122558215042052
492,AV ANGLA,ANGLA (AV ANGLA)_TOULOUSE,Toulouse,31555,2018-10-02,2018-01-01,ENTRE CHE PELLEPORT ET RUE CHAMPLAIN,VERS CHE PELLEPORT,False,444.0,43.60915412161251,1.4734958473574835
493,CHE MICHOUN,MICHOUN (CHE MICHOUN),Toulouse,31555,2018-10-17,2018-01-01,ENTRE AV DE LA ROSERAIE ET RUE ROUBICHOU,VERS CHE NICOL,False,2265.0,43.62799994767699,1.4705559450884151
494,CHE DE MENVIELLE,MENVIELLE (CHE DE MENVIELLE),Cornebarrieu,31150,2018-11-22,2018-01-01,ENTRE AV DE LETECOERE ET D63e,VERS AV DE LATECOERE,False,131.0,43.64276800725117,1.3366775518804253
495,RUE JACQUES GAMELIN,GAMELIN (RUE JACQUES GAMELIN),Toulouse,31555,2019-01-21,2019-01-01,ENTRE RUE DE MOSELLE ET RUE DE L'AVEYRON,VERS RUE VESTREPAIN,False,2070.0,43.585737686174205,1.419933924062781
496,RUE DE VENASQUE,VENASQUE (RUE DE VENASQUE),Toulouse,31555,2019-02-08,2019-01-01,ENTRECHE DE LA BUTTE ET IMP VENASQUE,VERS AV SAINT EXUPERY,False,1200.0,43.5791386872043,1.4784322666536147
497,AV DE L EURO,EURO (AV DE L EURO),Brugui√æres,31091,2019-02-11,2019-01-01,ENTRE RUE DU PARC ET IMPDE VALENCE,VES IMP DE VALENCE,False,910.0,43.72196252069472,1.3976391268218487
498,RUE JEAN PERRIN,PERRIN (RUE JEAN PERRIN),St-Jean,31488,2014-02-08,2014-01-01,ENTRE CURIE ET DANCELLE,VERS DANCELLE,False,406.0,43.651376268206434,1.5050483133615091
499,ALL FORAIN FRANCOIS VERDIER,VERDIER (ALL FORAIN FRANCOIS VERDIER),Toulouse,31555,2014-05-14,2014-01-01,ENTRE MONTOULIEU ST JACQUES ET BOULINGRIN,VERS GRAND ROND,True,9022.0,43.59797504432406,1.4519100829269291
500,RUE SYLVAIN DAURIAC,DAURIAC (RUE SYLVAIN DAURIAC)_TOULOUSE,Toulouse,31555,2014-05-14,2014-01-01,ENTRE RIQUET ET ESCANDE,SENS UNIQUE VERS ESCANDE,True,1023.0,43.601749265286784,1.4552486817691943
501,RUE DE SEBASTOPOL,SEBASTOPOL (RUE DE SEBASTOPOL),Toulouse,31555,2014-05-14,2014-01-01,ENTRE MARQUETTE ET ALARIC,VERS LASCROSSE,False,6749.0,43.6116270832316,1.429086972782501
502,AV AUGUSTIN LABOUILHE,LABOUILHE (AV AUGUSTIN LABOUILHE),St-Orens-De-Gameville,31506,2014-03-17,2014-01-01,ENTRE TUCARD ET LAURAGUAIS,VERS RUE DE NAZAN,False,2773.0,43.5522410029538,1.541763402553293
503,RUE DES SPORTS,SPORTS (RUE DES SPORTS),Saint-Orens-De-Gameville,31506,2014-03-18,2014-01-01,ENTRE CHE DE NAZAN ET RUE DU STADE,VERS NAZAN,False,690.0,43.5528011669002,1.5378656033695606
504,AV DIDIER DAURAT,DAURAT (AV DIDIER DAURAT),Blagnac,31069,2014-06-10,2014-01-01,ENTRE DUFOUR ET POTEZ,SENS UNIQUE VERS POTEZ,True,3767.0,43.63049142834966,1.3783230296629991
505,AV EMILE DEWOITINE,DEWOITINE (AV EMILE DEWOITINE),Blagnac,31069,2014-06-10,2014-01-01,ENTRE CHATAIN ET NADOT,VERS CHATAIN,False,2453.0,43.624895359856644,1.3823049465781498
506,GRANDE-RUE SAINT MICHEL,MICHEL (GRANDE-RUE SAINT MICHEL),Toulouse,31555,2014-10-07,2014-01-01,ENTRE GORP ET NOTRE DAME,VERS NOTRE DAME,False,5719.0,43.58815928449981,1.4464053493782747
507,RUE DES FELIBRES,FELIBRES (RUE DES FELIBRES),Toulouse,31555,2014-04-03,2014-01-01,ENTRE CHE VIREBENT ET CHE PALEFICAT,VERS CHE VIREBENT,False,91.0,43.65020408990054,1.463657648389617
508,CHE DE LA VIOLETTE,VIOLETTE (CHE DE LA VIOLETTE),Union,31561,2014-06-02,2014-01-01,ENTRE RTE DE BESSIERES ET IMP DE LA VIOLETT,VERS VIOLETTE,False,5831.0,43.66338782386823,1.463572871462224
509,COTE DE CORNAUDRIC,CORNAUDRIC (COTE DE CORNAUDRIC),Union,31561,2014-06-02,2014-01-01,ENTRE RTE DE BESSIERES ET SAULES,VERS BRUGUIERES,False,1227.0,43.66101600251906,1.4738595812280229
510,RTE DE BESSIERES,BESSIERES (RTE DE BESSIERES),Union,31561,2014-06-02,2014-01-01,ENTRE NOISETIERS ET CORNAUDRIC,VERS NOISETIERS,False,6085.0,43.65825806416141,1.470580700724683
511,RUE DES COCCINELLES,COCCINELLES (RUE DES COCCINELLES),Beauzelle,31056,2014-09-19,2014-01-01,ENTRE LIBELULES ET CIGALES,VERS CHE DES PAPILLONS,False,80.0,43.657747431985776,1.3793309496317152
512,AV CRAMPEL,CRAMPEL (AV CRAMPEL),Toulouse,31555,2014-09-15,2014-01-01,ENTRE NOGUES ET RUSSEL,VERS SEGOFFIN,False,8122.0,43.585585515964006,1.4553714085767782
513,AV DU ONZE NOVEMBRE 1918,NOVEMBRE (AV DU ONZE NOVEMBRE 1918),Blagnac,31069,2014-01-17,2014-01-01,ENTRE AV SERVANTY ET AV MISTRAL,VERS AV MISTRAL,False,1055.0,43.62807198864942,1.3964625771276102
514,CHE DE RIVALSUPERVIC,RIVALSUPERVIC (CHE DE RIVALSUPERVIC),Toulouse,31555,2014-01-20,2014-01-01,ENTRE CHE DES ETROITS CHE PLANTADE,VERS PECHBUSQUE,False,2782.0,43.54940972287738,1.4467371433978344
515,RUE HUBERT MONLOUP,MONLOUP (RUE HUBERT MONLOUP),Toulouse,31555,2014-01-09,2014-01-01,ENTRE MAUNOURY ET PUJIBET,LES DEUX SENS,False,1792.0,43.636600544902514,1.4540820196639197
516,RUE GABRIEL PERI,PERI (RUE GABRIEL PERI),Toulouse,31555,2016-01-06,2016-01-01,ENTRE RUE INDUSTRIE ET RUE PALAPRAT,VERS BD RIQUET,False,4093.0,43.60590284484825,1.4524724042562256
517,RUE DU SOMPORT,SOMPORT (RUE DU SOMPORT),L'union,31561,2016-01-07,2016-01-01,ENTRE RUE DU VIGNEMALE ET RUE DU MONT VALLI,VERS AV DE TOULOUSE,False,1644.0,43.65579190866775,1.4811469306234597
518,RUE FELIX DEBAX,DEBAX (RUE FELIX DEBAX),Blagnac,31069,2016-01-13,2016-01-01,ENTRERUE GUIMBAUD ET PL HERISSON,VERS PL HERISSON,True,1496.0,43.63213004247851,1.3989936804470453
519,RUE JEAN PERRIN,PERRIN (RUE JEAN PERRIN),St-Jean,31488,2016-01-13,2016-01-01,ENTRE RUE CURIE ET AV DANCELLE,VERS AV DE LA DANCELLE,False,384.0,43.651376268206434,1.5050483133615091
520,ALL DE GUYENNE,GUYENNE (ALL DE GUYENNE),Toulouse,31555,2016-02-15,2016-01-01,ENTRE DESBALS ET BIGORRE,LES DEUX SENS,False,7307.0,43.5759688713782,1.4126372966068403
521,CHE DE GINESTOUS,GINESTOUS (CHE DE GINESTOUS),Toulouse,31555,2016-03-07,2016-01-01,ENTRE CHE DE CHANTELLE ETIMP DE GINESTOUS,VERS RUE LOUIS BONIN,False,991.0,43.64108496811627,1.4128262466510844
522,AV DE TOULOUSE,TOULOUSE (AV DE TOULOUSE),Gratentour,31230,2016-03-08,2016-01-01,ENTRE RUE DU BARRY ET CASTELGINEST,VERS RUE DU BARRY,False,2764.0,43.717651268305396,1.4326341741246795
523,RUE SAINTE AUGUSTINE,AUGUSTINE (RUE SAINTE AUGUSTINE),Toulouse,31555,2016-03-11,2016-01-01,ENTRE RUE RAVEL ET RUE DES GLYCINES,VERS CHE AMOUROUX,True,1700.0,43.62609464206096,1.463078981167656
524,RUE MAURICE HUREL,HUREL (RUE MAURICE HUREL),Toulouse,31555,2016-03-14,2016-01-01,ENTRE AV DASSAULT ET RUE HILSZ,VERS IMPASSE,False,491.0,43.58454935787567,1.4941567781903926
525,QU DE LA DAURADE,DAURADE (QU DE LA DAURADE),Toulouse,31555,2016-03-14,2016-01-01,ENTRE DAURADE ET TABAC,VERS TABAC,True,5559.0,43.601674342426534,1.4398865715249711
526,AV MAURICE HAURIOU,HAURIOU (AV MAURICE HAURIOU),Toulouse,31555,2016-03-14,2016-01-01,ENTRE MOULIN DU CHATEAU ET GARONNETTE,VERS AV DE LA GARONNETTE,False,544.0,43.593510860624754,1.4423912384870707
527,RUE DE LA COLOMBETTE,COLOMBETTE (RUE DE LA COLOMBETTE)_TOULOUSE,Toulouse,31555,2016-03-14,2016-01-01,ENTRE MERCADIER ET AMELIE,VERS RUE AMELIE,True,2383.0,43.60451741153974,1.4534013247613067
528,RUE DES LILAS,LILAS (RUE DES LILAS),L'union,31561,2016-03-28,2016-01-01,ENTRE RUE DES BLEUETS ET RUE DES PERVENCHES,VERS RUE DE PERVENCHES,False,241.0,43.65358380323269,1.4737822924436355
529,RUE DES LILAS,LILAS (RUE DES LILAS),L'union,31561,2016-03-28,2016-01-01,ENTRE RUE DES BLEUETS ET RUE DES PERVENCHES,VERS RUE DES BLEUETS,False,172.0,43.65358380323269,1.4737822924436355
530,RUE DU CAPITAINE ESCUDIE,ESCUDIE (RUE DU CAPITAINE ESCUDIE),Toulouse,31555,2016-04-08,2016-01-01,ENTRE RUE PAUILHAC ET IMP ESCUDIE,VERS RUE DU PRINTEMPS,True,150.0,43.61289939131783,1.4435921107523844
